{
	"cidade":"Rio Branco",
	"centro":{
		"lat":-9.970946,
		"lng":-67.827663
	},
	"postos":[
		{"id":2167,"nome":"Auto Posto Ale V","nomeSlug":"auto-posto-ale-v","endereco":"Avenida Na\u00e7\u00f5es Unidas, 2123","lat":-9.9679,"lng":-67.8266,"bandeira":"br.png","Gasolina":3.94,"Alcool":3.3,"Diesel":3.52,"dataGasolina":"19\/05\/2016","idGasolina":8583825,"dataAlcool":"19\/05\/2016","idAlcool":8593149,"dataDiesel":"19\/05\/2016","idDiesel":8589216},
		{"id":2170,"nome":"Posto Conquista","nomeSlug":"posto-conquista","endereco":"Rua Valdomiro Lopes, 793","lat":-9.95189,"lng":-67.8315,"bandeira":"br.png","Gasolina":3.95,"Alcool":2.95,"Diesel":2.83,"dataGasolina":"19\/05\/2016","idGasolina":8583826,"dataAlcool":"17\/07\/2014","idAlcool":6924926,"dataDiesel":"17\/07\/2014","idDiesel":6918661},
		{"id":2172,"nome":"Posto Batista Ltda","nomeSlug":"posto-batista-ltda","endereco":"Estrada Ac 40, S\/n Km 0","lat":-9.98285,"lng":-67.8068,"bandeira":"br.png","Gasolina":3.99,"Alcool":2.64,"Diesel":3.427,"dataGasolina":"18\/02\/2016","idGasolina":8449237,"dataAlcool":"12\/02\/2014","idAlcool":6419123,"dataDiesel":"18\/02\/2016","idDiesel":8454408},
		{"id":2173,"nome":"Auto Posto Canind\u00e9","nomeSlug":"auto-posto-caninde","endereco":"Rodovia Ac -40, 3206 Km - 07","lat":-9.98285,"lng":-67.8068,"Gasolina":3.97,"Alcool":3.49,"Diesel":3.51,"dataGasolina":"22\/03\/2016","idGasolina":8524226,"dataAlcool":"22\/03\/2016","idAlcool":8533179,"dataDiesel":"22\/03\/2016","idDiesel":8529212},
		{"id":2177,"nome":"Auto Posto Acauan","nomeSlug":"auto-posto-acauan","endereco":"Rodovia Ac 40, 1800","lat":-9.98285,"lng":-67.8068,"bandeira":"br.png","Gasolina":3.97,"Alcool":3.49,"Diesel":3.52,"dataGasolina":"13\/04\/2016","idGasolina":8568786,"dataAlcool":"13\/04\/2016","idAlcool":8578092,"dataDiesel":"13\/04\/2016","idDiesel":8573811},
		{"id":2178,"nome":"Thalma Auto Posto","nomeSlug":"thalma-auto-posto","endereco":"Rua Juarez Tavora, 1489","lat":-9.92701,"lng":-67.8288,"bandeira":"br.png","Gasolina":3.98,"Alcool":3.45,"Diesel":3.52,"dataGasolina":"19\/05\/2016","idGasolina":8583831,"dataAlcool":"19\/05\/2016","idAlcool":8593155,"dataDiesel":"19\/05\/2016","idDiesel":8589212},
		{"id":9776,"nome":"Auto Posto Castanheira","nomeSlug":"auto-posto-castanheira","endereco":"Estrada da Floresta, S\/n","lat":-9.98576,"lng":-67.8433,"Gasolina":4.05,"Alcool":3.25,"Diesel":3.48,"dataGasolina":"22\/03\/2016","idGasolina":8524237,"dataAlcool":"22\/03\/2016","idAlcool":8533166,"dataDiesel":"22\/03\/2016","idDiesel":8529208},
		{"id":15292,"nome":"Auto Posto Isaur\u00e3o Ltda.","nomeSlug":"auto-posto-isaurao-ltda","endereco":"Rua Isaura Parente, 1412","lat":-9.96415,"lng":-67.8267,"bandeira":"br.png","Gasolina":3.97,"Alcool":3.49,"Diesel":3.52,"dataGasolina":"19\/05\/2016","idGasolina":8583827,"dataAlcool":"19\/05\/2016","idAlcool":8593156,"dataDiesel":"19\/05\/2016","idDiesel":8589220},
		{"id":21973,"nome":"Comdepe Com\u00e9rcio de Derivados de Petr\u00f3leo Ltda","nomeSlug":"comdepe-comercio-de-derivados-de-petroleo-ltda","endereco":"Avenida Na\u00e7oes Unidas, 23 0","lat":-9.96352,"lng":-67.8087,"Gasolina":3.98,"Alcool":2.64,"Diesel":3.55,"dataGasolina":"19\/05\/2016","idGasolina":8583829,"dataAlcool":"06\/03\/2014","idAlcool":6488744,"dataDiesel":"19\/05\/2016","idDiesel":8589226},
		{"id":21978,"nome":"Auto Posto Amap\u00e1 Ltda.","nomeSlug":"auto-posto-amapa-ltda","endereco":"Rodovia Ac 40, Via Chico Mendes, 3570 Km 04","lat":-9.95028,"lng":-67.8307,"bandeira":"branca.png","Gasolina":3.99,"Alcool":3.3,"Diesel":3.52,"dataGasolina":"19\/05\/2016","idGasolina":8583840,"dataAlcool":"19\/05\/2016","idAlcool":8593150,"dataDiesel":"19\/05\/2016","idDiesel":8589211},
		{"id":24637,"nome":"Posto Tri\u00e2ngulo Ltda.","nomeSlug":"posto-triangulo-ltda","endereco":"Rua Boulevard Augusto Monteiro, 1268 0","lat":-9.98886,"lng":-67.8128,"Gasolina":3.99,"Alcool":3.28,"Diesel":3.52,"dataGasolina":"19\/05\/2016","idGasolina":8583836,"dataAlcool":"19\/05\/2016","idAlcool":8593147,"dataDiesel":"19\/05\/2016","idDiesel":8589215},
		{"id":24638,"nome":"Lider Auto Posto Ltda","nomeSlug":"lider-auto-posto-ltda","endereco":"Rua Sergipe, 276 0","lat":-9.9809,"lng":-67.8715,"Gasolina":4.07,"Alcool":3.29,"Diesel":3.46,"dataGasolina":"07\/04\/2016","idGasolina":8553812,"dataAlcool":"07\/04\/2016","idAlcool":8562969,"dataDiesel":"07\/01\/2016","idDiesel":8364631},
		{"id":24642,"nome":"Auto Posto Santo Antonio Ltda","nomeSlug":"auto-posto-santo-antonio-ltda","endereco":"R Izaura Parente, 3265","lat":-9.96286,"lng":-67.8414,"Gasolina":4.1,"Alcool":3.29,"Diesel":3.51,"dataGasolina":"13\/04\/2016","idGasolina":8568803,"dataAlcool":"13\/04\/2016","idAlcool":8578083,"dataDiesel":"13\/04\/2016","idDiesel":8573802},
		{"id":24643,"nome":"Norte Com\u00e9rcio de Derivados de Petr\u00f3leo Ltda.","nomeSlug":"norte-comercio-de-derivados-de-petroleo-ltda","endereco":"Estrada do Calafate, 3900","lat":-9.97698,"lng":-67.8619,"Gasolina":4.07,"Alcool":3.29,"Diesel":3.49,"dataGasolina":"17\/03\/2016","idGasolina":8509049,"dataAlcool":"18\/02\/2016","idAlcool":8458568,"dataDiesel":"17\/03\/2016","idDiesel":8514455},
		{"id":24644,"nome":"Posto Bonz\u00e3o Ltda","nomeSlug":"posto-bonzao-ltda","endereco":"Rua Dom Bosco, 257 0","lat":-9.96227,"lng":-67.8139,"Gasolina":3.99,"Alcool":2.77,"Diesel":3.52,"dataGasolina":"19\/05\/2016","idGasolina":8583837,"dataAlcool":"10\/07\/2014","idAlcool":6902060,"dataDiesel":"19\/05\/2016","idDiesel":8589213},
		{"id":24645,"nome":"Auto Posto Trevo Ltda","nomeSlug":"auto-posto-trevo-ltda","endereco":"Estrada Apolonio Sales, S\/n","lat":-9.92932,"lng":-67.8113,"Gasolina":3.98,"Alcool":3.29,"Diesel":3.54,"dataGasolina":"19\/05\/2016","idGasolina":8583828,"dataAlcool":"19\/05\/2016","idAlcool":8593148,"dataDiesel":"19\/05\/2016","idDiesel":8589223},
		{"id":24647,"nome":"Auto Posto Junior Ltda","nomeSlug":"auto-posto-junior-ltda","endereco":"Avenida Getulio Vargas, 3149","lat":-9.95129,"lng":-67.8203,"Gasolina":3.98,"Alcool":3.45,"Diesel":3.48,"dataGasolina":"19\/05\/2016","idGasolina":8583830,"dataAlcool":"19\/05\/2016","idAlcool":8593154,"dataDiesel":"19\/05\/2016","idDiesel":8589208},
		{"id":24648,"nome":"Freitas Com\u00e9rio Derivados de Petr\u00f3leo Ltda.","nomeSlug":"freitas-comerio-derivados-de-petroleo-ltda","endereco":"Avenida Cear\u00e1, 3491","lat":-9.96842,"lng":-67.8278,"Gasolina":3.99,"Alcool":3.2,"Diesel":3.46,"dataGasolina":"13\/04\/2016","idGasolina":8568799,"dataAlcool":"13\/04\/2016","idAlcool":8578081,"dataDiesel":"13\/04\/2016","idDiesel":8573795},
		{"id":26350,"nome":"Auto Posto Sobral Ltda","nomeSlug":"auto-posto-sobral-ltda","endereco":"Estrada Sobral, 1284","lat":-9.99636,"lng":-67.825,"Gasolina":4.12,"Alcool":3.49,"Diesel":3.54,"dataGasolina":"19\/05\/2016","idGasolina":8583843,"dataAlcool":"19\/05\/2016","idAlcool":8593158,"dataDiesel":"19\/05\/2016","idDiesel":8589222},
		{"id":26675,"nome":"W. L. Soster - Me","nomeSlug":"w-l-soster-me","endereco":"Rodovia Br 364, 66 ","lat":-9.97691,"lng":-67.8061,"Gasolina":3.99,"Alcool":3.29,"Diesel":3.51,"dataGasolina":"23\/03\/2016","idGasolina":8524236,"dataAlcool":"23\/03\/2016","idAlcool":8533174,"dataDiesel":"23\/03\/2016","idDiesel":8529211},
		{"id":29000,"nome":"D.b. de Souza","nomeSlug":"d-b-de-souza","endereco":"Avenida Cear\u00e1, 2767 Loja 5","lat":-9.96938,"lng":-67.8215,"Gasolina":3.93,"Alcool":3.25,"Diesel":3.51,"dataGasolina":"19\/05\/2016","idGasolina":8583823,"dataAlcool":"19\/05\/2016","idAlcool":8593145,"dataDiesel":"19\/05\/2016","idDiesel":8589210},
		{"id":30713,"nome":"Lima & Morais Importa\u00e7\u00e3o e Exporta\u00e7\u00e3o Ltda.","nomeSlug":"lima-morais-importacao-e-exportacao-ltda","endereco":"Estrada da Floresta, 4279","lat":-9.98576,"lng":-67.8433,"Gasolina":4.08,"Alcool":3.08,"Diesel":3.54,"dataGasolina":"07\/04\/2016","idGasolina":8553814,"dataAlcool":"26\/08\/2015","idAlcool":8194873,"dataDiesel":"07\/04\/2016","idDiesel":8558965},
		{"id":31015,"nome":"Auto Posto J C Ltda - Epp","nomeSlug":"auto-posto-j-c-ltda-epp","endereco":"Rua Isaura Parente, 671","lat":-9.96483,"lng":-67.8202,"Gasolina":3.99,"Alcool":3.15,"Diesel":3.52,"dataGasolina":"19\/05\/2016","idGasolina":8583839,"dataAlcool":"19\/05\/2016","idAlcool":8593144,"dataDiesel":"19\/05\/2016","idDiesel":8589219},
		{"id":31177,"nome":"Farhat & Farhat Ltda.","nomeSlug":"farhat-farhat-ltda","endereco":"Estrada Santa In\u00eas, 1036","lat":-9.96271,"lng":-67.8008,"Gasolina":4.12,"Alcool":3.25,"Diesel":3.53,"dataGasolina":"19\/05\/2016","idGasolina":8583842,"dataAlcool":"19\/05\/2016","idAlcool":8593146,"dataDiesel":"19\/05\/2016","idDiesel":8589221},
		{"id":31254,"nome":"Rodrigues Comercio de Combustiveis Ltda","nomeSlug":"rodrigues-comercio-de-combustiveis-ltda","endereco":"Avenida Ceara, 611 0","lat":-9.97256,"lng":-67.8018,"Gasolina":3.98,"Alcool":2.64,"Diesel":3.55,"dataGasolina":"30\/03\/2016","idGasolina":8538843,"dataAlcool":"26\/02\/2014","idAlcool":6465535,"dataDiesel":"30\/03\/2016","idDiesel":8544157},
		{"id":31487,"nome":"Posto Floresta e Agropecu\u00e1ria Ltda","nomeSlug":"posto-floresta-e-agropecuaria-ltda","endereco":"Estrada da Floresta, 684 0","lat":-9.97915,"lng":-67.8362,"Gasolina":4.07,"Alcool":2.99,"Diesel":3.49,"dataGasolina":"18\/02\/2016","idGasolina":8449241,"dataAlcool":"18\/02\/2016","idAlcool":8458559,"dataDiesel":"18\/02\/2016","idDiesel":8454414},
		{"id":31494,"nome":"Posto Floresta e Agropecu\u00e1ria Ltda","nomeSlug":"posto-floresta-e-agropecuaria-ltda","endereco":"Estrada Sao  Francisco, 1558","lat":-9.95222,"lng":-67.7955,"Gasolina":3.97,"Alcool":3.48,"Diesel":3.54,"dataGasolina":"13\/04\/2016","idGasolina":8568785,"dataAlcool":"13\/04\/2016","idAlcool":8578091,"dataDiesel":"13\/04\/2016","idDiesel":8573814},
		{"id":31985,"nome":"Pontao Rio Gas Ltda - Me","nomeSlug":"pontao-rio-gas-ltda-me","endereco":"Avenida Epaminondas Jacome, 1383","lat":-9.97259,"lng":-67.7956,"Gasolina":4.2,"Alcool":"","Diesel":3.7,"dataGasolina":"23\/03\/2016","idGasolina":8524243,"dataDiesel":"23\/03\/2016","idDiesel":8529226},
		{"id":32547,"nome":"Auto Posto Gurgel Com\u00e9rcio e Derivados de Petr\u00f3leo Ltda","nomeSlug":"auto-posto-gurgel-comercio-e-derivados-de-petroleo-ltda","endereco":"Avenida Getulio Vargas, 1743","lat":-9.96247,"lng":-67.8152,"Gasolina":3.99,"Alcool":3.3,"Diesel":3.48,"dataGasolina":"13\/04\/2016","idGasolina":8568797,"dataAlcool":"13\/04\/2016","idAlcool":8578089,"dataDiesel":"13\/04\/2016","idDiesel":8573799},
		{"id":32551,"nome":"a & S Derivado de Petr\u00f3leo Ltda.","nomeSlug":"a-s-derivado-de-petroleo-ltda","endereco":"Av: Nacoes Unidas, 480","lat":-9.96472,"lng":-67.8123,"Gasolina":3.99,"Alcool":3.03,"Diesel":3.55,"dataGasolina":"30\/03\/2016","idGasolina":8538850,"dataAlcool":"25\/06\/2015","idAlcool":8029106,"dataDiesel":"30\/03\/2016","idDiesel":8544156},
		{"id":32922,"nome":"Wg - Com\u00e9rcio Varejista de Combust\u00edveis e Lubrificantes para Veiculos Ltda.","nomeSlug":"wg-comercio-varejista-de-combustiveis-e-lubrificantes-para-veiculos-ltda","endereco":"Br 364, 4136 Sala 02","lat":-10.0247,"lng":-67.8189,"Gasolina":4.2,"Alcool":"","Diesel":3.7,"dataGasolina":"18\/02\/2016","idGasolina":8449250,"dataDiesel":"18\/02\/2016","idDiesel":8454427},
		{"id":34118,"nome":"Wgc Comercio Varejista Varejista de Com.e Lubrif. para Veiculos Eireli.","nomeSlug":"wgc-comercio-varejista-varejista-de-com-e-lubrif-para-veiculos-eireli","endereco":"Av. Ceara, 1465","lat":-9.97045,"lng":-67.8164,"Gasolina":4.05,"Alcool":"","Diesel":3.28,"dataGasolina":"23\/02\/2016","idGasolina":8464460,"dataDiesel":"10\/08\/2015","idDiesel":8178031},
		{"id":34670,"nome":"Auto Posto Parati Ltda","nomeSlug":"auto-posto-parati-ltda","endereco":"Rua   Isaura Parente, 434","lat":-9.96475,"lng":-67.8181,"bandeira":"branca.png","Gasolina":3.97,"Alcool":3.3,"Diesel":3.48,"dataGasolina":"13\/04\/2016","idGasolina":8568787,"dataAlcool":"13\/04\/2016","idAlcool":8578088,"dataDiesel":"13\/04\/2016","idDiesel":8573797},
		{"id":34902,"nome":"Joafra - Auto Posto Eireli","nomeSlug":"joafra-auto-posto-eireli","endereco":"Avenida  Rui Lino, S\/n Qd. 46, Lt. 02","lat":-9.98125,"lng":-67.8367,"Gasolina":3.99,"Alcool":3.4,"Diesel":3.52,"dataGasolina":"30\/03\/2016","idGasolina":8538847,"dataAlcool":"30\/03\/2016","idAlcool":8548156,"dataDiesel":"30\/03\/2016","idDiesel":8544146},
		{"id":35209,"nome":"Posto Floresta e Agropecuaria Ltda","nomeSlug":"posto-floresta-e-agropecuaria-ltda","endereco":"Estrada da Floresta, 684","lat":-9.97915,"lng":-67.8362,"Gasolina":4.07,"Alcool":3.29,"Diesel":3.49,"dataGasolina":"07\/04\/2016","idGasolina":8553813,"dataAlcool":"07\/04\/2016","idAlcool":8562970,"dataDiesel":"07\/04\/2016","idDiesel":8558953}
	]
}