{
	"cidade":"Campo Grande",
	"centro":{
		"lat":-20.877109,
		"lng":-54.319762
	},
	"postos":[		
		{"id":493,"nome":"Auto Posto Los Angeles","nomeSlug":"auto-posto-los-angeles","endereco":"Rua do Patrocinio, 307","lat":-20.5477,"lng":-54.6169,"bandeira":"branca.png","Gasolina":3.299,"Alcool":2.859,"Diesel":3.099,"dataGasolina":"07\/04\/2016","idGasolina":8552135,"dataAlcool":"07\/04\/2016","idAlcool":8561914,"dataDiesel":"07\/04\/2016","idDiesel":8558094},
		{"id":498,"nome":"Posto B\u00fazios","nomeSlug":"posto-buzios","endereco":"Rodovia Br 262, S\/n Km 06","lat":-20.463,"lng":-54.7143,"Gasolina":3.399,"Alcool":2.959,"Diesel":3.259,"dataGasolina":"30\/03\/2016","idGasolina":8537403,"dataAlcool":"30\/03\/2016","idAlcool":8546625,"dataDiesel":"22\/02\/2016","idDiesel":8468226},
		{"id":499,"nome":"Auto Posto Tr\u00eas Barras","nomeSlug":"auto-posto-tres-barras","endereco":"Avenida Tr\u00eas Barras, 3384","lat":-20.4943,"lng":-54.5717,"bandeira":"branca.png","Gasolina":3.359,"Alcool":2.599,"Diesel":3.079,"dataGasolina":"16\/05\/2016","idGasolina":8582206,"dataAlcool":"16\/05\/2016","idAlcool":8591819,"dataDiesel":"20\/04\/2015","idDiesel":7821731},
		{"id":506,"nome":"Posto Vip","nomeSlug":"posto-vip","endereco":"Rua Marechal Rondon, 187","lat":-20.4619,"lng":-54.6298,"bandeira":"branca.png","Gasolina":3.399,"Alcool":2.999,"Diesel":3.27,"dataGasolina":"22\/03\/2016","idGasolina":8522660,"dataAlcool":"22\/03\/2016","idAlcool":8531877,"dataDiesel":"22\/03\/2016","idDiesel":8527973},
		{"id":509,"nome":"Posto Independ\u00eancia Ltda.","nomeSlug":"posto-independencia-ltda","endereco":"Avenida J\u00falio de Castilhos, 300","lat":-20.4607,"lng":-54.634,"bandeira":"br.png","Gasolina":3.299,"Alcool":2.499,"Diesel":2.463,"dataGasolina":"25\/05\/2016","idGasolina":8597324,"dataAlcool":"25\/05\/2016","idAlcool":8606935,"dataDiesel":"25\/04\/2014","idDiesel":5808334},
		{"id":523,"nome":"Auto Posto Marechal Deodoro","nomeSlug":"auto-posto-marechal-deodoro","endereco":"Avenida Marechal Deodoro, 170","lat":-20.4868,"lng":-54.6479,"bandeira":"branca.png","Gasolina":3.259,"Alcool":2.799,"Diesel":3.099,"dataGasolina":"08\/03\/2016","idGasolina":8492924,"dataAlcool":"08\/03\/2016","idAlcool":8502112,"dataDiesel":"08\/03\/2016","idDiesel":8498237},
		{"id":526,"nome":"Posto Rouxinol Ltda","nomeSlug":"posto-rouxinol-ltda","endereco":"Avenida Rouxinol, 36","lat":-20.4735,"lng":-54.583,"bandeira":"texaco.png","Gasolina":3.399,"Alcool":2.599,"Diesel":3.099,"dataGasolina":"16\/05\/2016","idGasolina":8582214,"dataAlcool":"16\/05\/2016","idAlcool":8591818,"dataDiesel":"02\/06\/2015","idDiesel":7955335},
		{"id":529,"nome":"2m Com\u00e9rcio de Derivados de Petr\u00f3leo Ltda.","nomeSlug":"2m-comercio-de-derivados-de-petroleo-ltda","endereco":"Rua Marques de Leao, 1114","lat":-20.4219,"lng":-54.5626,"Gasolina":3.399,"Alcool":3.099,"Diesel":3.09,"dataGasolina":"07\/04\/2016","idGasolina":8552149,"dataAlcool":"07\/04\/2016","idAlcool":8561944,"dataDiesel":"14\/10\/2015","idDiesel":8246578},
		{"id":531,"nome":"Auto Posto S\u00edrius","nomeSlug":"auto-posto-sirius","endereco":"Rua Vit\u00f3rio Zeolla, 2222","lat":-20.4287,"lng":-54.5712,"bandeira":"br.png","Gasolina":3.499,"Alcool":3.059,"Diesel":2.459,"dataGasolina":"07\/04\/2016","idGasolina":8552154,"dataAlcool":"07\/04\/2016","idAlcool":8561937,"dataDiesel":"10\/10\/2013","idDiesel":6006318},
		{"id":538,"nome":"Posto Gueno Avenida","nomeSlug":"posto-gueno-avenida","endereco":"Rua Espirito Santo, 1094","lat":-20.4526,"lng":-54.5985,"bandeira":"texaco.png","Gasolina":3.499,"Alcool":2.999,"Diesel":"","dataGasolina":"30\/03\/2016","idGasolina":8537414,"dataAlcool":"30\/03\/2016","idAlcool":8546637},
		{"id":539,"nome":"Posto Ms","nomeSlug":"posto-ms","endereco":"Avenida Afonso Pena, 1379","lat":-20.4651,"lng":-54.6245,"bandeira":"branca.png","Gasolina":3.399,"Alcool":2.849,"Diesel":2.469,"dataGasolina":"16\/02\/2016","idGasolina":8447903,"dataAlcool":"16\/02\/2016","idAlcool":8456986,"dataDiesel":"24\/07\/2013","idDiesel":5747096},
		{"id":542,"nome":"Posto Catarinense","nomeSlug":"posto-catarinense","endereco":"Avenida Bandeirantes, 2576","lat":-20.4842,"lng":-54.6406,"bandeira":"br.png","Gasolina":3.49,"Alcool":3.05,"Diesel":3.16,"dataGasolina":"22\/03\/2016","idGasolina":8522665,"dataAlcool":"22\/03\/2016","idAlcool":8531883,"dataDiesel":"22\/03\/2016","idDiesel":8527969},
		{"id":543,"nome":"Posto Piraputanga","nomeSlug":"posto-piraputanga","endereco":"Avenida das Bandeiras, 706","lat":-20.4787,"lng":-54.6207,"Gasolina":3.299,"Alcool":2.889,"Diesel":3.249,"dataGasolina":"22\/03\/2016","idGasolina":8522649,"dataAlcool":"22\/03\/2016","idAlcool":8531857,"dataDiesel":"22\/03\/2016","idDiesel":8527970},
		{"id":546,"nome":"Posto Mil","nomeSlug":"posto-mil","endereco":"Avenida Manoel da Costa Lima, 459","lat":-20.4965,"lng":-54.6198,"bandeira":"br.png","Gasolina":3.498,"Alcool":2.788,"Diesel":3.278,"dataGasolina":"17\/05\/2016","idGasolina":8582224,"dataAlcool":"17\/05\/2016","idAlcool":8591835,"dataDiesel":"17\/05\/2016","idDiesel":8587897},
		{"id":557,"nome":"Auto Posto Alian\u00e7a","nomeSlug":"auto-posto-alianca","endereco":"Avenida Mato Grosso, 1510","lat":-20.4543,"lng":-54.6071,"bandeira":"ipiranga.png","Gasolina":3.599,"Alcool":2.999,"Diesel":2.87,"dataGasolina":"22\/03\/2016","idGasolina":8522672,"dataAlcool":"22\/03\/2016","idAlcool":8531879,"dataDiesel":"06\/08\/2014","idDiesel":6986093},
		{"id":9126,"nome":"Auto Posto Milenio Ltda","nomeSlug":"auto-posto-milenio-ltda","endereco":"Rua Bahia, 1408","lat":-20.4534,"lng":-54.6035,"bandeira":"br.png","Gasolina":3.497,"Alcool":2.985,"Diesel":3.363,"dataGasolina":"22\/03\/2016","idGasolina":8522666,"dataAlcool":"22\/03\/2016","idAlcool":8531872,"dataDiesel":"22\/03\/2016","idDiesel":8527979},
		{"id":9129,"nome":"Posto Acacia","nomeSlug":"posto-acacia","endereco":"Rua 26 de Agosto, 15","lat":-20.467,"lng":-54.6135,"bandeira":"branca.png","Gasolina":3.249,"Alcool":2.939,"Diesel":"","dataGasolina":"22\/03\/2016","idGasolina":8522642,"dataAlcool":"22\/03\/2016","idAlcool":8531862},
		{"id":9130,"nome":"Posto Campo Grande","nomeSlug":"posto-campo-grande","endereco":"Avenida Capibaribe, 327","lat":-20.451,"lng":-54.6689,"bandeira":"br.png","Gasolina":3.499,"Alcool":2.699,"Diesel":3.299,"dataGasolina":"23\/05\/2016","idGasolina":8597349,"dataAlcool":"23\/05\/2016","idAlcool":8606954,"dataDiesel":"23\/05\/2016","idDiesel":8602807},
		{"id":9132,"nome":"Posto Metropole","nomeSlug":"posto-metropole","endereco":"Rua 26 de Agosto, 499","lat":-20.4673,"lng":-54.6179,"Gasolina":3.499,"Alcool":3.099,"Diesel":3.299,"dataGasolina":"30\/03\/2016","idGasolina":8537411,"dataAlcool":"30\/03\/2016","idAlcool":8546650,"dataDiesel":"30\/03\/2016","idDiesel":8543200},
		{"id":9133,"nome":"Pereira & Cia Ltda","nomeSlug":"pereira-cia-ltda","endereco":"Rua Jose Nogueira Vieira, 1310","lat":-20.4757,"lng":-54.573,"bandeira":"br.png","Gasolina":3.499,"Alcool":2.899,"Diesel":3.299,"dataGasolina":"16\/05\/2016","idGasolina":8582230,"dataAlcool":"16\/05\/2016","idAlcool":8591839,"dataDiesel":"16\/05\/2016","idDiesel":8587902},
		{"id":9140,"nome":"Posto Saito","nomeSlug":"posto-saito","endereco":"Avenida Guaicurus, 5494","lat":-20.5338,"lng":-54.6247,"bandeira":"texaco.png","Gasolina":3.499,"Alcool":2.799,"Diesel":3.299,"dataGasolina":"16\/05\/2016","idGasolina":8582228,"dataAlcool":"16\/05\/2016","idAlcool":8591836,"dataDiesel":"16\/05\/2016","idDiesel":8587901},
		{"id":9146,"nome":"Auto Posto Caprini Ii","nomeSlug":"auto-posto-caprini-ii","endereco":"Avenida Zulmira Borba, 956 Lt. 3m - Qd. 262","lat":-20.3948,"lng":-54.5708,"bandeira":"branca.png","Gasolina":3.39,"Alcool":2.98,"Diesel":3.27,"dataGasolina":"07\/04\/2016","idGasolina":8552147,"dataAlcool":"07\/04\/2016","idAlcool":8561923,"dataDiesel":"07\/04\/2016","idDiesel":8558106},
		{"id":9148,"nome":"Posto Avenida Afonso Pena","nomeSlug":"posto-avenida-afonso-pena","endereco":"Avenida Afonso Pena, 3189","lat":-20.4625,"lng":-54.609,"bandeira":"texaco.png","Gasolina":3.399,"Alcool":2.699,"Diesel":2.359,"dataGasolina":"23\/05\/2016","idGasolina":8597341,"dataAlcool":"23\/05\/2016","idAlcool":8606951,"dataDiesel":"05\/12\/2012","idDiesel":4738492},
		{"id":9155,"nome":"Posto Taruma","nomeSlug":"posto-taruma","endereco":"Avenida Marechal Deodoro, 6994","lat":-20.4906,"lng":-54.6485,"bandeira":"ipiranga.png","Gasolina":3.599,"Alcool":3.059,"Diesel":3.259,"dataGasolina":"08\/03\/2016","idGasolina":8492950,"dataAlcool":"08\/03\/2016","idAlcool":8502138,"dataDiesel":"08\/03\/2016","idDiesel":8498250},
		{"id":15238,"nome":"Auto Posto Rosa","nomeSlug":"auto-posto-rosa","endereco":"Avenida Tamandare, 820","lat":-20.4537,"lng":-54.6335,"bandeira":"ipiranga.png","Gasolina":3.399,"Alcool":2.939,"Diesel":2.899,"dataGasolina":"30\/03\/2016","idGasolina":8537401,"dataAlcool":"30\/03\/2016","idAlcool":8546623,"dataDiesel":"14\/09\/2015","idDiesel":8213486},
		{"id":15239,"nome":"Auto Posto Shima","nomeSlug":"auto-posto-shima","endereco":"Avenida das Bandeiras, 2197","lat":-20.4908,"lng":-54.628,"bandeira":"br.png","Gasolina":3.399,"Alcool":2.699,"Diesel":3.089,"dataGasolina":"17\/05\/2016","idGasolina":8582220,"dataAlcool":"17\/05\/2016","idAlcool":8591833,"dataDiesel":"22\/06\/2015","idDiesel":8021887},
		{"id":15892,"nome":"Bonatto & Bonatto Ltda.","nomeSlug":"bonatto-bonatto-ltda","endereco":"Avenida Tres Barras, S\/n","lat":-20.488,"lng":-54.5769,"bandeira":"br.png","Gasolina":3.344,"Alcool":2.999,"Diesel":3.099,"dataGasolina":"07\/04\/2016","idGasolina":8552138,"dataAlcool":"07\/04\/2016","idAlcool":8561928,"dataDiesel":"07\/04\/2016","idDiesel":8558096},
		{"id":15893,"nome":"Posto S\u00e3o Crist\u00f3v\u00e3o","nomeSlug":"posto-sao-cristovao","endereco":"Rua Doutor Euler de Azevedo, 1068","lat":-20.438,"lng":-54.626,"bandeira":"texaco.png","Gasolina":3.299,"Alcool":2.859,"Diesel":3.099,"dataGasolina":"15\/03\/2016","idGasolina":8507800,"dataAlcool":"15\/03\/2016","idAlcool":8516797,"dataDiesel":"15\/03\/2016","idDiesel":8513217},
		{"id":15894,"nome":"Bonatto & Bonatto","nomeSlug":"bonatto-bonatto","endereco":"Avenida Nelly Martins, 121","lat":-20.4483,"lng":-54.581,"bandeira":"br.png","Gasolina":3.344,"Alcool":2.999,"Diesel":3.099,"dataGasolina":"14\/04\/2016","idGasolina":8567402,"dataAlcool":"14\/04\/2016","idAlcool":8576493,"dataDiesel":"14\/04\/2016","idDiesel":8572905},
		{"id":15895,"nome":"Posto Autonomista","nomeSlug":"posto-autonomista","endereco":"Rua Cear\u00e1, 2178","lat":-20.447,"lng":-54.5946,"bandeira":"ipiranga.png","Gasolina":3.399,"Alcool":2.99,"Diesel":3.27,"dataGasolina":"30\/03\/2016","idGasolina":8537404,"dataAlcool":"30\/03\/2016","idAlcool":8546633,"dataDiesel":"30\/03\/2016","idDiesel":8543197},
		{"id":15896,"nome":"Posto Vit\u00f3ria","nomeSlug":"posto-vitoria","endereco":"Rua General Bertoldo Klinger, 2616","lat":-20.4288,"lng":-54.6405,"bandeira":"ipiranga.png","Gasolina":3.299,"Alcool":2.599,"Diesel":3.299,"dataGasolina":"23\/05\/2016","idGasolina":8597327,"dataAlcool":"23\/05\/2016","idAlcool":8606941,"dataDiesel":"23\/05\/2016","idDiesel":8602808},
		{"id":15900,"nome":"Posto Coopharadio","nomeSlug":"posto-coopharadio","endereco":"Rua Spipe Calarge, 1658","lat":-20.4934,"lng":-54.5984,"Gasolina":3.499,"Alcool":2.999,"Diesel":2.499,"dataGasolina":"07\/04\/2016","idGasolina":8552153,"dataAlcool":"07\/04\/2016","idAlcool":8561933,"dataDiesel":"05\/06\/2013","idDiesel":5621734},
		{"id":15901,"nome":"Auto Posto Bandeiras","nomeSlug":"auto-posto-bandeiras","endereco":"Avenida das Bandeiras, 1640","lat":-20.4863,"lng":-54.6254,"bandeira":"texaco.png","Gasolina":3.399,"Alcool":2.699,"Diesel":2.699,"dataGasolina":"17\/05\/2016","idGasolina":8582222,"dataAlcool":"17\/05\/2016","idAlcool":8591826,"dataDiesel":"29\/04\/2014","idDiesel":6665321},
		{"id":15902,"nome":"Posto Saito Uni\u00e3o","nomeSlug":"posto-saito-uniao","endereco":"Rua Petr\u00f3polis, 1431","lat":-20.4814,"lng":-54.662,"bandeira":"texaco.png","Gasolina":3.59,"Alcool":2.95,"Diesel":2.65,"dataGasolina":"08\/03\/2016","idGasolina":8492945,"dataAlcool":"08\/03\/2016","idAlcool":8502121,"dataDiesel":"24\/03\/2014","idDiesel":6550412},
		{"id":15903,"nome":"Posto Kau\u00ea","nomeSlug":"posto-kaue","endereco":"Avenida Mascarenhas de Moraes, 2838","lat":-20.4345,"lng":-54.6026,"Gasolina":3.399,"Alcool":2.959,"Diesel":3.259,"dataGasolina":"22\/03\/2016","idGasolina":8522661,"dataAlcool":"22\/03\/2016","idAlcool":8531864,"dataDiesel":"22\/03\/2016","idDiesel":8527972},
		{"id":17146,"nome":"Auto Posto Na\u00e7\u00f5es Indigenas","nomeSlug":"auto-posto-nacoes-indigenas","endereco":"Avenida Afonso Pena, 7144","lat":-20.457,"lng":-54.5749,"bandeira":"br.png","Gasolina":3.499,"Alcool":2.949,"Diesel":"","dataGasolina":"30\/03\/2016","idGasolina":8537421,"dataAlcool":"30\/03\/2016","idAlcool":8546624},
		{"id":21317,"nome":"Auto Posto Mancoes Ltda","nomeSlug":"auto-posto-mancoes-ltda","endereco":"Rodovia Br 163, S\/n Km 454","lat":-20.4303,"lng":-54.5909,"bandeira":"branca.png","Gasolina":3.349,"Alcool":2.599,"Diesel":3.19,"dataGasolina":"16\/05\/2016","idGasolina":8582203,"dataAlcool":"16\/05\/2016","idAlcool":8591817,"dataDiesel":"08\/03\/2016","idDiesel":8498245},
		{"id":21319,"nome":"Abastecedora de Combustiveis Independencia Ltda","nomeSlug":"abastecedora-de-combustiveis-independencia-ltda","endereco":"Avenida Tamandare, 4139 0","lat":-20.4257,"lng":-54.625,"bandeira":"branca.png","Gasolina":3.377,"Alcool":2.557,"Diesel":3.087,"dataGasolina":"23\/05\/2016","idGasolina":8597332,"dataAlcool":"23\/05\/2016","idAlcool":8606937,"dataDiesel":"23\/05\/2016","idDiesel":8602794},
		{"id":21320,"nome":"Posto K\u00e1tia Locatelli Ltda.","nomeSlug":"posto-katia-locatelli-ltda","endereco":"Avenida Costa e Silva, 14","lat":-20.4831,"lng":-54.6155,"bandeira":"branca.png","Gasolina":3.389,"Alcool":2.659,"Diesel":3.277,"dataGasolina":"17\/05\/2016","idGasolina":8582211,"dataAlcool":"17\/05\/2016","idAlcool":8591822,"dataDiesel":"17\/05\/2016","idDiesel":8587896},
		{"id":21321,"nome":"Auto Estilo Com. de Combust\u00edveis e Deriv. de Pet. Ltda.","nomeSlug":"auto-estilo-com-de-combustiveis-e-deriv-de-pet-ltda","endereco":"Rua Joaquim Murtinho, 10557","lat":-20.4711,"lng":-54.5865,"Gasolina":3.359,"Alcool":2.979,"Diesel":3.299,"dataGasolina":"07\/04\/2016","idGasolina":8552144,"dataAlcool":"07\/04\/2016","idAlcool":8561920,"dataDiesel":"07\/04\/2016","idDiesel":8558108},
		{"id":21325,"nome":"Igomar Locatelli, Filho & Cia. Ltda.","nomeSlug":"igomar-locatelli-filho-cia-ltda","endereco":"Avenida Redentor, 1577","lat":-20.4653,"lng":-54.5485,"Gasolina":3.358,"Alcool":2.988,"Diesel":3.198,"dataGasolina":"07\/04\/2016","idGasolina":8552142,"dataAlcool":"07\/04\/2016","idAlcool":8561925,"dataDiesel":"07\/04\/2016","idDiesel":8558100},
		{"id":21334,"nome":"Auto Posto Aimore Ltda - Epp","nomeSlug":"auto-posto-aimore-ltda-epp","endereco":"Avenida Guaicurus, 8138","lat":-20.5387,"lng":-54.6486,"Gasolina":3.499,"Alcool":3.059,"Diesel":3.369,"dataGasolina":"07\/04\/2016","idGasolina":8552160,"dataAlcool":"07\/04\/2016","idAlcool":8561939,"dataDiesel":"07\/04\/2016","idDiesel":8558111},
		{"id":21336,"nome":"B. H. G. Com\u00e9rcio de Combust\u00edveis Ltda.","nomeSlug":"b-h-g-comercio-de-combustiveis-ltda","endereco":"Avenida Bandeirantes, 2390","lat":-20.4828,"lng":-54.6396,"Gasolina":3.39,"Alcool":2.98,"Diesel":3.29,"dataGasolina":"22\/03\/2016","idGasolina":8522658,"dataAlcool":"22\/03\/2016","idAlcool":8531871,"dataDiesel":"22\/03\/2016","idDiesel":8527975},
		{"id":21337,"nome":"Auto Posto Aparecida do Norte Ltda.","nomeSlug":"auto-posto-aparecida-do-norte-ltda","endereco":"Rua Brilhante, 2787 0","lat":-20.4795,"lng":-54.6402,"Gasolina":3.39,"Alcool":2.938,"Diesel":3.08,"dataGasolina":"22\/03\/2016","idGasolina":8522657,"dataAlcool":"22\/03\/2016","idAlcool":8531861,"dataDiesel":"11\/02\/2015","idDiesel":7598223},
		{"id":21341,"nome":"Auto Posto Nipobras Ltda","nomeSlug":"auto-posto-nipobras-ltda","endereco":"Rua Dr. Euler de Azevedo, 3460","lat":-20.4285,"lng":-54.6455,"Gasolina":3.499,"Alcool":2.899,"Diesel":3.3,"dataGasolina":"23\/05\/2016","idGasolina":8597347,"dataAlcool":"23\/05\/2016","idAlcool":8606959,"dataDiesel":"23\/05\/2016","idDiesel":8602810},
		{"id":24321,"nome":"Bonatto & Cia Ltda","nomeSlug":"bonatto-cia-ltda","endereco":"Rua Arthur Jorge, 2838 0","lat":-20.4407,"lng":-54.6099,"Gasolina":3.299,"Alcool":2.899,"Diesel":3.077,"dataGasolina":"22\/03\/2016","idGasolina":8522645,"dataAlcool":"22\/03\/2016","idAlcool":8531860,"dataDiesel":"22\/03\/2016","idDiesel":8527966},
		{"id":24322,"nome":"Auto Posto Pmp Ltda","nomeSlug":"auto-posto-pmp-ltda","endereco":"Travessa General Holgrand, 22","lat":-20.4548,"lng":-54.6125,"bandeira":"branca.png","Gasolina":3.299,"Alcool":2.989,"Diesel":3.299,"dataGasolina":"22\/03\/2016","idGasolina":8522647,"dataAlcool":"22\/03\/2016","idAlcool":8531875,"dataDiesel":"22\/03\/2016","idDiesel":8527978},
		{"id":24324,"nome":"Bonatto & Cia Ltda","nomeSlug":"bonatto-cia-ltda","endereco":"Rua Ana Luiza de Souza, 1861 0","lat":-20.5205,"lng":-54.6196,"Gasolina":3.344,"Alcool":2.999,"Diesel":3.077,"dataGasolina":"30\/03\/2016","idGasolina":8537394,"dataAlcool":"30\/03\/2016","idAlcool":8546643,"dataDiesel":"30\/03\/2016","idDiesel":8543190},
		{"id":24326,"nome":"Posto Seara Ltda","nomeSlug":"posto-seara-ltda","endereco":"Avenida Guaicurus, S\/n 0","lat":-20.5168,"lng":-54.5749,"Gasolina":3.344,"Alcool":2.999,"Diesel":3.099,"dataGasolina":"07\/04\/2016","idGasolina":8552139,"dataAlcool":"07\/04\/2016","idAlcool":8561934,"dataDiesel":"07\/04\/2016","idDiesel":8558097},
		{"id":24327,"nome":"Posto Imbirussu Ltda","nomeSlug":"posto-imbirussu-ltda","endereco":"Avenida Marechal Deodoro, 1156 0","lat":-20.4951,"lng":-54.65,"Gasolina":3.499,"Alcool":2.959,"Diesel":2.699,"dataGasolina":"30\/03\/2016","idGasolina":8537419,"dataAlcool":"30\/03\/2016","idAlcool":8546627,"dataDiesel":"09\/06\/2014","idDiesel":6803039},
		{"id":24328,"nome":"Petro\u00e1lcool Com\u00e9rcio de Derivados Petr\u00f3leo Ltda","nomeSlug":"petroalcool-comercio-de-derivados-petroleo-ltda","endereco":"Rua Fraiburgo, 819 0","lat":-20.5494,"lng":-54.5853,"bandeira":"branca.png","Gasolina":3.499,"Alcool":2.999,"Diesel":3.077,"dataGasolina":"30\/03\/2016","idGasolina":8537415,"dataAlcool":"30\/03\/2016","idAlcool":8546642,"dataDiesel":"30\/03\/2016","idDiesel":8543191},
		{"id":24330,"nome":"Posto Cabreuva Ltda","nomeSlug":"posto-cabreuva-ltda","endereco":"Avenida Presidente Ernesto Geisel, 5983 0","lat":-20.49,"lng":-54.6351,"bandeira":"branca.png","Gasolina":3.449,"Alcool":2.969,"Diesel":3.259,"dataGasolina":"22\/03\/2016","idGasolina":8522664,"dataAlcool":"22\/03\/2016","idAlcool":8531870,"dataDiesel":"22\/03\/2016","idDiesel":8527971},
		{"id":24332,"nome":"Posto S\u00e3o Miguel Arcanjo Ltda.","nomeSlug":"posto-sao-miguel-arcanjo-ltda","endereco":"Avenida Marechal Deodoro, 4730","lat":-20.4906,"lng":-54.6485,"Gasolina":3.599,"Alcool":2.949,"Diesel":3.249,"dataGasolina":"08\/03\/2016","idGasolina":8492951,"dataAlcool":"08\/03\/2016","idAlcool":8502117,"dataDiesel":"08\/03\/2016","idDiesel":8498249},
		{"id":24333,"nome":"Souza & Miranda Ltda.","nomeSlug":"souza-miranda-ltda","endereco":"Avenida Marechal Deodoro, 5712","lat":-20.4906,"lng":-54.6485,"Gasolina":3.597,"Alcool":3.059,"Diesel":3.269,"dataGasolina":"08\/03\/2016","idGasolina":8492949,"dataAlcool":"08\/03\/2016","idAlcool":8502137,"dataDiesel":"08\/03\/2016","idDiesel":8498252},
		{"id":24334,"nome":"Abastecedora Aparecida do Norte Ltda","nomeSlug":"abastecedora-aparecida-do-norte-ltda","endereco":"Avenida Tiradentes, 993 0","lat":-20.4742,"lng":-54.6415,"Gasolina":3.399,"Alcool":2.699,"Diesel":3.299,"dataGasolina":"17\/05\/2016","idGasolina":8582217,"dataAlcool":"17\/05\/2016","idAlcool":8591832,"dataDiesel":"17\/05\/2016","idDiesel":8587900},
		{"id":24335,"nome":"Abastecedora Aparecida do Norte Ltda","nomeSlug":"abastecedora-aparecida-do-norte-ltda","endereco":"Rua Rui Barbosa, 1263 0","lat":-20.4755,"lng":-54.6118,"Gasolina":3.39,"Alcool":2.9,"Diesel":3.269,"dataGasolina":"08\/03\/2016","idGasolina":8492930,"dataAlcool":"08\/03\/2016","idAlcool":8502115,"dataDiesel":"08\/03\/2016","idDiesel":8498251},
		{"id":24336,"nome":"Abastecedora Aparecida do Norte Ltda","nomeSlug":"abastecedora-aparecida-do-norte-ltda","endereco":"Avenida Manoel da Costa Lima, 2076 0","lat":-20.498,"lng":-54.6348,"Gasolina":3.399,"Alcool":2.599,"Diesel":3.279,"dataGasolina":"17\/05\/2016","idGasolina":8582218,"dataAlcool":"17\/05\/2016","idAlcool":8591814,"dataDiesel":"17\/05\/2016","idDiesel":8587898},
		{"id":24338,"nome":"Yonamine & Cia Ltda.","nomeSlug":"yonamine-cia-ltda","endereco":"Avenida Calogeras, 1472","lat":-20.4771,"lng":-54.6166,"Gasolina":3.499,"Alcool":2.999,"Diesel":3.299,"dataGasolina":"22\/03\/2016","idGasolina":8522667,"dataAlcool":"22\/03\/2016","idAlcool":8531881,"dataDiesel":"22\/03\/2016","idDiesel":8527977},
		{"id":24339,"nome":"Jorge Saito","nomeSlug":"jorge-saito","endereco":"Rua Fatima do Sul, 836","lat":-20.5286,"lng":-54.6684,"Gasolina":3.59,"Alcool":2.95,"Diesel":3.19,"dataGasolina":"08\/03\/2016","idGasolina":8492947,"dataAlcool":"08\/03\/2016","idAlcool":8502123,"dataDiesel":"08\/03\/2016","idDiesel":8498244},
		{"id":24340,"nome":"Jorge Saito","nomeSlug":"jorge-saito","endereco":"Rua General Alberto Carlos de Mendon\u00e7a Lima, 569 0","lat":-20.4996,"lng":-54.6783,"Gasolina":3.59,"Alcool":2.95,"Diesel":3.19,"dataGasolina":"08\/03\/2016","idGasolina":8492946,"dataAlcool":"08\/03\/2016","idAlcool":8502122,"dataDiesel":"08\/03\/2016","idDiesel":8498246},
		{"id":24344,"nome":"Shiraishi, Matsubara & Cia Ltda","nomeSlug":"shiraishi-matsubara-cia-ltda","endereco":"Av. Coronel Antonino, 2613","lat":-20.4323,"lng":-54.593,"bandeira":"branca.png","Gasolina":3.499,"Alcool":2.999,"Diesel":3.249,"dataGasolina":"07\/04\/2016","idGasolina":8552163,"dataAlcool":"07\/04\/2016","idAlcool":8561931,"dataDiesel":"22\/02\/2016","idDiesel":8468225},
		{"id":24345,"nome":"Posto Liberdade Locatelli Ltda.","nomeSlug":"posto-liberdade-locatelli-ltda","endereco":"Avenida Coronel Antonino, 902 0","lat":-20.4399,"lng":-54.5996,"Gasolina":3.39,"Alcool":2.99,"Diesel":3.09,"dataGasolina":"14\/04\/2016","idGasolina":8567409,"dataAlcool":"14\/04\/2016","idAlcool":8576480,"dataDiesel":"16\/06\/2015","idDiesel":7999740},
		{"id":24346,"nome":"Auto Posto Piloto Marcelle Locatelli Ltda.","nomeSlug":"auto-posto-piloto-marcelle-locatelli-ltda","endereco":"Avenida Afonso Pena, 800","lat":-20.4666,"lng":-54.6295,"Gasolina":3.399,"Alcool":2.999,"Diesel":2.356,"dataGasolina":"22\/03\/2016","idGasolina":8522659,"dataAlcool":"22\/03\/2016","idAlcool":8531882,"dataDiesel":"22\/08\/2012","idDiesel":4844486},
		{"id":24349,"nome":"Auto Posto Norte Sul Ltda.","nomeSlug":"auto-posto-norte-sul-ltda","endereco":"Avenida Manoel da Costa Lima, 2590","lat":-20.4973,"lng":-54.639,"Gasolina":3.499,"Alcool":2.899,"Diesel":3.079,"dataGasolina":"02\/02\/2016","idGasolina":8417645,"dataAlcool":"02\/02\/2016","idAlcool":8427195,"dataDiesel":"02\/02\/2016","idDiesel":8423515},
		{"id":24351,"nome":"Posto Capital Ltda","nomeSlug":"posto-capital-ltda","endereco":"Rua 14 de Julho, 193 0","lat":-20.4792,"lng":-54.6143,"Gasolina":3.57,"Alcool":2.86,"Diesel":2.389,"dataGasolina":"30\/03\/2016","idGasolina":8537422,"dataAlcool":"30\/03\/2016","idAlcool":8546621,"dataDiesel":"06\/02\/2013","idDiesel":5368913},
		{"id":24352,"nome":"Posto S\u00e3o Marcos Ltda","nomeSlug":"posto-sao-marcos-ltda","endereco":"Rua Marechal Rondon, 2135 0","lat":-20.459,"lng":-54.6116,"Gasolina":3.359,"Alcool":2.959,"Diesel":2.299,"dataGasolina":"22\/03\/2016","idGasolina":8522655,"dataAlcool":"22\/03\/2016","idAlcool":8531865,"dataDiesel":"02\/08\/2012","idDiesel":4763274},
		{"id":24353,"nome":"Posto Mediterraneo Ltda","nomeSlug":"posto-mediterraneo-ltda","endereco":"Rua 14 de Julho, 3334 0","lat":-20.4528,"lng":-54.6191,"Gasolina":3.299,"Alcool":2.919,"Diesel":3.27,"dataGasolina":"30\/03\/2016","idGasolina":8537392,"dataAlcool":"30\/03\/2016","idAlcool":8546622,"dataDiesel":"30\/03\/2016","idDiesel":8543198},
		{"id":24354,"nome":"Alcova e Ribeiro Ltda.","nomeSlug":"alcova-e-ribeiro-ltda","endereco":"Avenida Tamandar\u00e9, 5788","lat":-20.4126,"lng":-54.6207,"Gasolina":3.399,"Alcool":2.599,"Diesel":3.279,"dataGasolina":"23\/05\/2016","idGasolina":8597344,"dataAlcool":"23\/05\/2016","idAlcool":8606944,"dataDiesel":"23\/05\/2016","idDiesel":8602804},
		{"id":25383,"nome":"Posto Gueno Ltda","nomeSlug":"posto-gueno-ltda","endereco":"Avenida Eduardo Elias Zahran, 2279 0","lat":-20.4783,"lng":-54.5981,"bandeira":"branca.png","Gasolina":3.49,"Alcool":2.99,"Diesel":"","dataGasolina":"30\/03\/2016","idGasolina":8537409,"dataAlcool":"30\/03\/2016","idAlcool":8546634},
		{"id":25387,"nome":"Auto Posto Aero Rancho Ltda.","nomeSlug":"auto-posto-aero-rancho-ltda","endereco":"Avenida Thirson de Almeida, 760 0","lat":-20.5217,"lng":-54.6559,"Gasolina":3.399,"Alcool":2.699,"Diesel":2.999,"dataGasolina":"17\/05\/2016","idGasolina":8582215,"dataAlcool":"17\/05\/2016","idAlcool":8591828,"dataDiesel":"23\/09\/2015","idDiesel":8221106},
		{"id":25388,"nome":"Ribeiro de Mendon\u00e7a Baston & Cia Ltda.","nomeSlug":"ribeiro-de-mendonca-baston-cia-ltda","endereco":"Avenida Afonso Pena, 5264","lat":-20.4598,"lng":-54.5911,"Gasolina":3.496,"Alcool":3.097,"Diesel":"","dataGasolina":"07\/04\/2016","idGasolina":8552152,"dataAlcool":"07\/04\/2016","idAlcool":8561942},
		{"id":25389,"nome":"Trokar Postos de Servicos Ltda","nomeSlug":"trokar-postos-de-servicos-ltda","endereco":"Rua Jose Antonio Pereira, 260","lat":-20.555,"lng":-54.6235,"bandeira":"branca.png","Gasolina":3.499,"Alcool":3.049,"Diesel":3.249,"dataGasolina":"30\/03\/2016","idGasolina":8537412,"dataAlcool":"30\/03\/2016","idAlcool":8546647,"dataDiesel":"22\/02\/2016","idDiesel":8468223},
		{"id":25652,"nome":"Petroradio Comercio Derivados de Petroleo Ltda","nomeSlug":"petroradio-comercio-derivados-de-petroleo-ltda","endereco":"Rua Spipe Calarge, 1441 0","lat":-20.4915,"lng":-54.599,"bandeira":"branca.png","Gasolina":3.299,"Alcool":2.859,"Diesel":3.099,"dataGasolina":"07\/04\/2016","idGasolina":8552134,"dataAlcool":"07\/04\/2016","idAlcool":8561915,"dataDiesel":"07\/04\/2016","idDiesel":8558095},
		{"id":25656,"nome":"Auto Posto Jau Ltda. Me.","nomeSlug":"auto-posto-jau-ltda-me","endereco":"Rod. Br 163, S\/n Km 370","lat":-20.4306,"lng":-54.5913,"bandeira":"branca.png","Gasolina":3.359,"Alcool":2.969,"Diesel":3.249,"dataGasolina":"30\/03\/2016","idGasolina":8537396,"dataAlcool":"30\/03\/2016","idAlcool":8546629,"dataDiesel":"30\/03\/2016","idDiesel":8543195},
		{"id":25657,"nome":"Hideo Saito","nomeSlug":"hideo-saito","endereco":"Avenida Julio de Castilho, 1976 0","lat":-20.4532,"lng":-54.647,"Gasolina":3.39,"Alcool":2.65,"Diesel":3.26,"dataGasolina":"25\/05\/2016","idGasolina":8597335,"dataAlcool":"25\/05\/2016","idAlcool":8606948,"dataDiesel":"25\/05\/2016","idDiesel":8602802},
		{"id":25659,"nome":"Irm\u00e3os Batistela Ltda","nomeSlug":"irmaos-batistela-ltda","endereco":"R 14 de Julho, 4763","lat":-20.439,"lng":-54.6182,"Gasolina":3.299,"Alcool":2.966,"Diesel":3.099,"dataGasolina":"22\/03\/2016","idGasolina":8522650,"dataAlcool":"22\/03\/2016","idAlcool":8531869,"dataDiesel":"22\/03\/2016","idDiesel":8527967},
		{"id":25661,"nome":"Auto Posto e Servi\u00e7o Uno Parron Ltda.","nomeSlug":"auto-posto-e-servico-uno-parron-ltda","endereco":"Rua   Jaraucu, 1757","lat":-20.3841,"lng":-54.5439,"bandeira":"branca.png","Gasolina":3.359,"Alcool":2.959,"Diesel":3.259,"dataGasolina":"30\/03\/2016","idGasolina":8537395,"dataAlcool":"30\/03\/2016","idAlcool":8546626,"dataDiesel":"30\/03\/2016","idDiesel":8543196},
		{"id":25662,"nome":"Posto Figueira Ltda","nomeSlug":"posto-figueira-ltda","endereco":"Avenida Coronel Antonino, 3514 0","lat":-20.4392,"lng":-54.599,"Gasolina":3.495,"Alcool":2.985,"Diesel":3.249,"dataGasolina":"07\/04\/2016","idGasolina":8552151,"dataAlcool":"07\/04\/2016","idAlcool":8561924,"dataDiesel":"07\/04\/2016","idDiesel":8558103},
		{"id":25663,"nome":"Posto Figueira Rui Barbosa Ltda.","nomeSlug":"posto-figueira-rui-barbosa-ltda","endereco":"Rua   Trindade, 843","lat":-20.4935,"lng":-54.6078,"Gasolina":3.499,"Alcool":2.699,"Diesel":2.469,"dataGasolina":"23\/05\/2016","idGasolina":8597348,"dataAlcool":"23\/05\/2016","idAlcool":8606953,"dataDiesel":"17\/07\/2013","idDiesel":5723428},
		{"id":25664,"nome":"Continental Com\u00e9rcio de Combust\u00edveis e Derivados Ltda.","nomeSlug":"continental-comercio-de-combustiveis-e-derivados-ltda","endereco":"Rodovia Br 163, 3526","lat":-20.4154,"lng":-54.5774,"bandeira":"branca.png","Gasolina":3.379,"Alcool":2.769,"Diesel":3.278,"dataGasolina":"23\/05\/2016","idGasolina":8597334,"dataAlcool":"23\/05\/2016","idAlcool":8606955,"dataDiesel":"23\/05\/2016","idDiesel":8602803},
		{"id":25665,"nome":"Com\u00e9rcio de Combust\u00edveis Castro Ltda.","nomeSlug":"comercio-de-combustiveis-castro-ltda","endereco":"Avenida Costa e Silva, 930","lat":-20.4913,"lng":-54.6139,"Gasolina":3.399,"Alcool":2.699,"Diesel":3.269,"dataGasolina":"17\/05\/2016","idGasolina":8582213,"dataAlcool":"17\/05\/2016","idAlcool":8591827,"dataDiesel":"17\/05\/2016","idDiesel":8587894},
		{"id":25666,"nome":"Alphaville Com\u00e9rcio de Combust\u00edveis Ltda.","nomeSlug":"alphaville-comercio-de-combustiveis-ltda","endereco":"Rua Coronel Antonino, 1846","lat":-20.4336,"lng":-54.5939,"Gasolina":3.499,"Alcool":2.699,"Diesel":3.299,"dataGasolina":"16\/05\/2016","idGasolina":8582229,"dataAlcool":"16\/05\/2016","idAlcool":8591829,"dataDiesel":"16\/05\/2016","idDiesel":8587899},
		{"id":25667,"nome":"Auto Posto Fenner Ltda.","nomeSlug":"auto-posto-fenner-ltda","endereco":"Avenida Mato Grosso, 809","lat":-20.4553,"lng":-54.6141,"bandeira":"branca.png","Gasolina":3.299,"Alcool":2.989,"Diesel":3.299,"dataGasolina":"22\/03\/2016","idGasolina":8522644,"dataAlcool":"22\/03\/2016","idAlcool":8531873,"dataDiesel":"22\/03\/2016","idDiesel":8527976},
		{"id":25671,"nome":"Posto Nona Emilia Ltda","nomeSlug":"posto-nona-emilia-ltda","endereco":"Rua Secundaria, 05","lat":-20.4979,"lng":-54.735,"Gasolina":3.349,"Alcool":2.599,"Diesel":3.099,"dataGasolina":"25\/05\/2016","idGasolina":8597329,"dataAlcool":"25\/05\/2016","idAlcool":8606942,"dataDiesel":"25\/05\/2016","idDiesel":8602796},
		{"id":25674,"nome":"Jony Lopes da Silva","nomeSlug":"jony-lopes-da-silva","endereco":"Rua Dom Aquino, 2084 0","lat":-20.4604,"lng":-54.6122,"Gasolina":3.319,"Alcool":2.989,"Diesel":2.778,"dataGasolina":"22\/03\/2016","idGasolina":8522651,"dataAlcool":"22\/03\/2016","idAlcool":8531874,"dataDiesel":"16\/01\/2014","idDiesel":6308713},
		{"id":26207,"nome":"Auto Posto Aero Rancho Ltda.","nomeSlug":"auto-posto-aero-rancho-ltda","endereco":"Avenida Calogeras, 1673","lat":-20.4763,"lng":-54.6168,"Gasolina":3.399,"Alcool":2.966,"Diesel":2.169,"dataGasolina":"22\/03\/2016","idGasolina":8522662,"dataAlcool":"22\/03\/2016","idAlcool":8531868,"dataDiesel":"17\/04\/2012","idDiesel":4425152},
		{"id":26696,"nome":"Bonatto & Cia Ltda","nomeSlug":"bonatto-cia-ltda","endereco":"Avenida Duque de Caxias, 5403 0","lat":-20.4555,"lng":-54.676,"Gasolina":3.344,"Alcool":2.999,"Diesel":3.199,"dataGasolina":"07\/04\/2016","idGasolina":8552140,"dataAlcool":"07\/04\/2016","idAlcool":8561929,"dataDiesel":"07\/04\/2016","idDiesel":8558101},
		{"id":26856,"nome":"Saldiva & Estival Ltda.","nomeSlug":"saldiva-estival-ltda","endereco":"Rua Dolores, 381","lat":-20.4599,"lng":-54.6423,"bandeira":"branca.png","Gasolina":3.29,"Alcool":2.56,"Diesel":2.149,"dataGasolina":"23\/05\/2016","idGasolina":8597323,"dataAlcool":"23\/05\/2016","idAlcool":8606938,"dataDiesel":"07\/02\/2012","idDiesel":4211281},
		{"id":27207,"nome":"Auto Posto Tijuca Ltda.","nomeSlug":"auto-posto-tijuca-ltda","endereco":"Rua Solto Maior, 1023","lat":-20.5118,"lng":-54.6632,"Gasolina":3.399,"Alcool":3.069,"Diesel":3.269,"dataGasolina":"14\/04\/2016","idGasolina":8567422,"dataAlcool":"14\/04\/2016","idAlcool":8576496,"dataDiesel":"14\/04\/2016","idDiesel":8572911},
		{"id":27523,"nome":"Ribeiro & Paulino Ltda - Epp","nomeSlug":"ribeiro-paulino-ltda-epp","endereco":"Rua Joaquim Murtinho, 1573 0","lat":-20.4669,"lng":-54.5982,"Gasolina":3.499,"Alcool":3.04,"Diesel":"","dataGasolina":"30\/03\/2016","idGasolina":8537420,"dataAlcool":"30\/03\/2016","idAlcool":8546644},
		{"id":28360,"nome":"Biondo & Cia Ltda.","nomeSlug":"biondo-cia-ltda","endereco":"Rua Eduardo Santos Pereira, 601 0","lat":-20.4486,"lng":-54.5957,"bandeira":"branca.png","Gasolina":3.495,"Alcool":3.09,"Diesel":2.499,"dataGasolina":"30\/03\/2016","idGasolina":8537410,"dataAlcool":"30\/03\/2016","idAlcool":8546648,"dataDiesel":"30\/11\/2013","idDiesel":6153458},
		{"id":28799,"nome":"Posto Locatelli M\u00e3e e Filha Ltda","nomeSlug":"posto-locatelli-mae-e-filha-ltda","endereco":"Rua Ceara, 1661","lat":-20.4509,"lng":-54.5939,"bandeira":"branca.png","Gasolina":3.397,"Alcool":2.997,"Diesel":2.119,"dataGasolina":"30\/03\/2016","idGasolina":8537399,"dataAlcool":"30\/03\/2016","idAlcool":8546636,"dataDiesel":"17\/07\/2012","idDiesel":4713614},
		{"id":28887,"nome":"Bpd Com\u00e9rcio de Combust\u00edveis Ltda.","nomeSlug":"bpd-comercio-de-combustiveis-ltda","endereco":"Rua Coronel Quito, 205","lat":-20.4707,"lng":-54.6198,"Gasolina":3.499,"Alcool":3.099,"Diesel":2.659,"dataGasolina":"22\/03\/2016","idGasolina":8522669,"dataAlcool":"22\/03\/2016","idAlcool":8531884,"dataDiesel":"06\/08\/2014","idDiesel":6986085},
		{"id":28917,"nome":"Alloy Auto Posto Ltda","nomeSlug":"alloy-auto-posto-ltda","endereco":"Avenida Fernando Correa da Costa, 630 0","lat":-20.4702,"lng":-54.6212,"Gasolina":3.399,"Alcool":2.859,"Diesel":3.099,"dataGasolina":"30\/03\/2016","idGasolina":8537400,"dataAlcool":"30\/03\/2016","idAlcool":8546620,"dataDiesel":"05\/05\/2015","idDiesel":7865973},
		{"id":28918,"nome":"Auto Posto Calogeras Ltda.","nomeSlug":"auto-posto-calogeras-ltda","endereco":"Av. Calogeras, 2650","lat":-20.4723,"lng":-54.6175,"bandeira":"branca.png","Gasolina":3.347,"Alcool":2.847,"Diesel":3.147,"dataGasolina":"22\/03\/2016","idGasolina":8522652,"dataAlcool":"22\/03\/2016","idAlcool":8531855,"dataDiesel":"22\/03\/2016","idDiesel":8527968},
		{"id":29358,"nome":"Fenner & Cia Ltda","nomeSlug":"fenner-cia-ltda","endereco":"Avenida Amelio Carvalho Bais, 34","lat":-20.4332,"lng":-54.673,"bandeira":"branca.png","Gasolina":3.269,"Alcool":2.499,"Diesel":3.089,"dataGasolina":"23\/05\/2016","idGasolina":8597320,"dataAlcool":"23\/05\/2016","idAlcool":8606930,"dataDiesel":"23\/05\/2016","idDiesel":8602795},
		{"id":29556,"nome":"Posto Vitoria Ltda","nomeSlug":"posto-vitoria-ltda","endereco":"Avenida Costa e Silva, 967","lat":-20.4914,"lng":-54.6135,"bandeira":"branca.png","Gasolina":3.377,"Alcool":2.677,"Diesel":3.259,"dataGasolina":"23\/05\/2016","idGasolina":8597333,"dataAlcool":"23\/05\/2016","idAlcool":8606949,"dataDiesel":"23\/05\/2016","idDiesel":8602801},
		{"id":30112,"nome":"Pegoraro Com\u00e9rcio de Combust\u00edveis Ltda.","nomeSlug":"pegoraro-comercio-de-combustiveis-ltda","endereco":"Avenida Joao Rosa Pires, 353","lat":-20.4657,"lng":-54.6236,"Gasolina":3.499,"Alcool":2.899,"Diesel":2.599,"dataGasolina":"22\/03\/2016","idGasolina":8522671,"dataAlcool":"22\/03\/2016","idAlcool":8531859,"dataDiesel":"14\/08\/2013","idDiesel":5817923},
		{"id":30290,"nome":"L & F Auto Posto Ltda","nomeSlug":"l-f-auto-posto-ltda","endereco":"Rua Maracaju, 466","lat":-20.4586,"lng":-54.6172,"Gasolina":3.349,"Alcool":2.966,"Diesel":2.28,"dataGasolina":"22\/03\/2016","idGasolina":8522653,"dataAlcool":"22\/03\/2016","idAlcool":8531867,"dataDiesel":"22\/08\/2012","idDiesel":4844474},
		{"id":30634,"nome":"J.m.b.m. Comercio de Combustiveis Ltda","nomeSlug":"j-m-b-m-comercio-de-combustiveis-ltda","endereco":"Avenida Afonso Pena, 2179","lat":-20.464,"lng":-54.6177,"Gasolina":3.259,"Alcool":2.849,"Diesel":"","dataGasolina":"22\/03\/2016","idGasolina":8522643,"dataAlcool":"22\/03\/2016","idAlcool":8531856},
		{"id":30891,"nome":"Ana R. Torres - Guanandi","nomeSlug":"ana-r-torres-guanandi","endereco":"Avenida Marechal Deodoro, 2151 0","lat":-20.4906,"lng":-54.6485,"Gasolina":3.499,"Alcool":2.999,"Diesel":"","dataGasolina":"08\/03\/2016","idGasolina":8492942,"dataAlcool":"08\/03\/2016","idAlcool":8502136},
		{"id":31033,"nome":"Posto S\u00e3o Judas Tadeu Ltda Me","nomeSlug":"posto-sao-judas-tadeu-ltda-me","endereco":"Rua da Divis\u00e3o, 1266","lat":-20.5156,"lng":-54.6346,"bandeira":"branca.png","Gasolina":3.35,"Alcool":2.95,"Diesel":2.95,"dataGasolina":"22\/03\/2016","idGasolina":8522654,"dataAlcool":"22\/03\/2016","idAlcool":8531863,"dataDiesel":"28\/07\/2015","idDiesel":8132264},
		{"id":31050,"nome":"Auto Posto F\u00eanix Ltda.","nomeSlug":"auto-posto-fenix-ltda","endereco":"Rua  dos Andradas, 301","lat":-20.4612,"lng":-54.6449,"Gasolina":3.479,"Alcool":2.999,"Diesel":3.299,"dataGasolina":"30\/03\/2016","idGasolina":8537406,"dataAlcool":"30\/03\/2016","idAlcool":8546640,"dataDiesel":"22\/02\/2016","idDiesel":8468229},
		{"id":31285,"nome":"Shiraishi Harasaki e Cia Ltda","nomeSlug":"shiraishi-harasaki-e-cia-ltda","endereco":"Avenida Manoel Joaquim Moraes, 742 0","lat":-20.4975,"lng":-54.6563,"Gasolina":3.499,"Alcool":2.949,"Diesel":3.249,"dataGasolina":"08\/03\/2016","idGasolina":8492940,"dataAlcool":"08\/03\/2016","idAlcool":8502119,"dataDiesel":"08\/03\/2016","idDiesel":8498248},
		{"id":31426,"nome":"Com\u00e9rcio de Combusti\u00edveis Norbeoil Ltda","nomeSlug":"comercio-de-combustiiveis-norbeoil-ltda","endereco":"Rua Tonico Carvalho, 375, S\/n","lat":-20.4718,"lng":-54.6255,"Gasolina":3.369,"Alcool":2.999,"Diesel":3.289,"dataGasolina":"22\/03\/2016","idGasolina":8522656,"dataAlcool":"22\/03\/2016","idAlcool":8531880,"dataDiesel":"22\/03\/2016","idDiesel":8527974},
		{"id":31654,"nome":"Bonatto & Cia Ltda","nomeSlug":"bonatto-cia-ltda","endereco":"Avenida Guaicurus, 4242","lat":-20.5282,"lng":-54.6083,"bandeira":"branca.png","Gasolina":3.344,"Alcool":2.555,"Diesel":3.099,"dataGasolina":"16\/05\/2016","idGasolina":8582200,"dataAlcool":"16\/05\/2016","idAlcool":8591810,"dataDiesel":"16\/05\/2016","idDiesel":8587889},
		{"id":32743,"nome":"Albatroz Comercial de Petroleo Ltda.","nomeSlug":"albatroz-comercial-de-petroleo-ltda","endereco":"Avenida Costa e Silva, 831","lat":-20.4897,"lng":-54.6139,"Gasolina":3.499,"Alcool":3.064,"Diesel":3.234,"dataGasolina":"14\/04\/2016","idGasolina":8567428,"dataAlcool":"14\/04\/2016","idAlcool":8576495,"dataDiesel":"14\/04\/2016","idDiesel":8572909},
		{"id":32796,"nome":"Posto Imperial Ltda","nomeSlug":"posto-imperial-ltda","endereco":"Rua Spipe Calarge, 303","lat":-20.4823,"lng":-54.6017,"Gasolina":3.396,"Alcool":2.997,"Diesel":3.297,"dataGasolina":"14\/04\/2016","idGasolina":8567413,"dataAlcool":"14\/04\/2016","idAlcool":8576482,"dataDiesel":"14\/04\/2016","idDiesel":8572915},
		{"id":32799,"nome":"Abastecedora Nossa Senhora Imaculada Ltda.","nomeSlug":"abastecedora-nossa-senhora-imaculada-ltda","endereco":"Avenida Euler de Azevedo, 418","lat":-20.4407,"lng":-54.6229,"bandeira":"branca.png","Gasolina":3.269,"Alcool":2.429,"Diesel":"","dataGasolina":"23\/05\/2016","idGasolina":8597319,"dataAlcool":"23\/05\/2016","idAlcool":8606929},
		{"id":32800,"nome":"L.r Petr\u00f3leo Ltda","nomeSlug":"l-r-petroleo-ltda","endereco":"Avenida Mascarenhas de Moraes, 2117","lat":-20.4356,"lng":-54.6077,"bandeira":"branca.png","Gasolina":3.25,"Alcool":1.99,"Diesel":2.87,"dataGasolina":"13\/02\/2016","idGasolina":8417316,"dataAlcool":"28\/09\/2015","idAlcool":8231497,"dataDiesel":"28\/09\/2015","idDiesel":8229516},
		{"id":32801,"nome":"Comercio de Derivados de Petroleo 14 de Julho Ltda","nomeSlug":"comercio-de-derivados-de-petroleo-14-de-julho-ltda","endereco":"Rua 14 de Julho, 2907","lat":-20.455,"lng":-54.6188,"bandeira":"branca.png","Gasolina":3.299,"Alcool":2.599,"Diesel":2.988,"dataGasolina":"23\/05\/2016","idGasolina":8597326,"dataAlcool":"23\/05\/2016","idAlcool":8606940,"dataDiesel":"07\/04\/2015","idDiesel":7777189},
		{"id":32804,"nome":"Posto de Combustivel Cidade Morena Ltda","nomeSlug":"posto-de-combustivel-cidade-morena-ltda","endereco":"Avenida Eduardo Elias Zahran, 1727","lat":-20.4786,"lng":-54.599,"Gasolina":3.399,"Alcool":3.099,"Diesel":"","dataGasolina":"14\/04\/2016","idGasolina":8567420,"dataAlcool":"14\/04\/2016","idAlcool":8576497},
		{"id":32806,"nome":"Posto Caranda Locatelli Ltda","nomeSlug":"posto-caranda-locatelli-ltda","endereco":"Avenida Mato Grosso, 4645","lat":-20.4487,"lng":-54.5755,"Gasolina":3.399,"Alcool":2.499,"Diesel":3.099,"dataGasolina":"23\/05\/2016","idGasolina":8597346,"dataAlcool":"23\/05\/2016","idAlcool":8606932,"dataDiesel":"07\/12\/2015","idDiesel":8321519},
		{"id":32808,"nome":"Posto Bandeira Ltda","nomeSlug":"posto-bandeira-ltda","endereco":"Rua Rita Vieira de Andrade, 587","lat":-20.491,"lng":-54.5868,"Gasolina":3.377,"Alcool":2.677,"Diesel":3.259,"dataGasolina":"17\/05\/2016","idGasolina":8582207,"dataAlcool":"17\/05\/2016","idAlcool":8591824,"dataDiesel":"17\/05\/2016","idDiesel":8587891},
		{"id":32809,"nome":"Auto Posto Referencia Ltda","nomeSlug":"auto-posto-referencia-ltda","endereco":"Avenida Guaicurus, 9194","lat":-20.515,"lng":-54.569,"Gasolina":3.399,"Alcool":2.699,"Diesel":3.089,"dataGasolina":"17\/05\/2016","idGasolina":8582223,"dataAlcool":"17\/05\/2016","idAlcool":8591825,"dataDiesel":"09\/06\/2015","idDiesel":7977266},
		{"id":32810,"nome":"Faleiro & Cia Ltda","nomeSlug":"faleiro-cia-ltda","endereco":"Rua   Cana\u00e3, 111","lat":-20.4246,"lng":-54.6153,"Gasolina":3.399,"Alcool":2.599,"Diesel":3.099,"dataGasolina":"23\/05\/2016","idGasolina":8597342,"dataAlcool":"23\/05\/2016","idAlcool":8606946,"dataDiesel":"06\/04\/2015","idDiesel":7777218},
		{"id":32811,"nome":"Lopes & Faleiros Ltda","nomeSlug":"lopes-faleiros-ltda","endereco":"Avenida Duquedecaxias, 3144","lat":-20.4602,"lng":-54.6595,"Gasolina":3.499,"Alcool":2.966,"Diesel":3.099,"dataGasolina":"15\/03\/2016","idGasolina":8507824,"dataAlcool":"15\/03\/2016","idAlcool":8516803,"dataDiesel":"15\/04\/2015","idDiesel":7799500},
		{"id":32812,"nome":"Partners Air Servi\u00e7os e Com\u00e9rcio de Produtos de Petr\u00f3leo Ltda.","nomeSlug":"partners-air-servicos-e-comercio-de-produtos-de-petroleo-ltda","endereco":"Avenida Duque de Caxias, 4355","lat":-20.4576,"lng":-54.6737,"Gasolina":3.389,"Alcool":2.989,"Diesel":3.279,"dataGasolina":"15\/03\/2016","idGasolina":8507806,"dataAlcool":"15\/03\/2016","idAlcool":8516810,"dataDiesel":"15\/03\/2016","idDiesel":8513228},
		{"id":32813,"nome":"Jose Abrao Derivados de Petroleo Ltda.","nomeSlug":"jose-abrao-derivados-de-petroleo-ltda","endereco":"Rua Dr. Euler de Azevedo, 5112","lat":-20.4223,"lng":-54.6567,"Gasolina":3.399,"Alcool":2.699,"Diesel":"","dataGasolina":"23\/05\/2016","idGasolina":8597339,"dataAlcool":"23\/05\/2016","idAlcool":8606952},
		{"id":32814,"nome":"Shiraishi & Cia Ltda","nomeSlug":"shiraishi-cia-ltda","endereco":"Avenida Julio de Castilho, 3420","lat":-20.4458,"lng":-54.6611,"Gasolina":3.399,"Alcool":2.599,"Diesel":"","dataGasolina":"23\/05\/2016","idGasolina":8597337,"dataAlcool":"23\/05\/2016","idAlcool":8606939},
		{"id":32816,"nome":"Rede Local Comercio de Combustiveis Ltda.","nomeSlug":"rede-local-comercio-de-combustiveis-ltda","endereco":"Est. Br 163, 3550 Chacara 4","lat":-20.439,"lng":-54.559,"Gasolina":3.399,"Alcool":2.799,"Diesel":3.279,"dataGasolina":"23\/05\/2016","idGasolina":8597343,"dataAlcool":"23\/05\/2016","idAlcool":8606958,"dataDiesel":"23\/05\/2016","idDiesel":8602805},
		{"id":33187,"nome":"Petroleo Centro-oeste Ltda","nomeSlug":"petroleo-centro-oeste-ltda","endereco":"Rodovia Br 163, S\/n Km 460,5","lat":-20.7212,"lng":-54.5427,"bandeira":"branca.png","Gasolina":3.369,"Alcool":2.979,"Diesel":3.189,"dataGasolina":"30\/03\/2016","idGasolina":8537397,"dataAlcool":"30\/03\/2016","idAlcool":8546630,"dataDiesel":"30\/03\/2016","idDiesel":8543193},
		{"id":33477,"nome":"L.h. Fenner - Combustiveis - Me","nomeSlug":"l-h-fenner-combustiveis-me","endereco":"Avenida Tres Barras, 2321","lat":-20.4909,"lng":-54.5743,"Gasolina":3.349,"Alcool":2.699,"Diesel":3.279,"dataGasolina":"17\/05\/2016","idGasolina":8582202,"dataAlcool":"17\/05\/2016","idAlcool":8591830,"dataDiesel":"15\/03\/2016","idDiesel":8513231},
		{"id":33668,"nome":"Makro Atacadista Sociedade Anonima","nomeSlug":"makro-atacadista-sociedade-anonima","endereco":"Avenida Coronel Antonino, 5498","lat":-20.4332,"lng":-54.5939,"Gasolina":3.349,"Alcool":2.899,"Diesel":3.159,"dataGasolina":"14\/04\/2016","idGasolina":8567403,"dataAlcool":"14\/04\/2016","idAlcool":8576472,"dataDiesel":"14\/04\/2016","idDiesel":8572906},
		{"id":33767,"nome":"Multi Aviation Comercio de Combust\u00edveis para Avia\u00e7\u00e3o Ltda. - Me","nomeSlug":"multi-aviation-comercio-de-combustiveis-para-aviacao-ltda-me","endereco":"Rodovia Br 262, S\/n Km 99","lat":-20.4783,"lng":-54.7569,"bandeira":"branca.png","Gasolina":3.379,"Alcool":2.989,"Diesel":3.259,"dataGasolina":"14\/04\/2016","idGasolina":8567406,"dataAlcool":"14\/04\/2016","idAlcool":8576479,"dataDiesel":"14\/04\/2016","idDiesel":8572910},
		{"id":33869,"nome":"Posto Caranda Bosque Ltda","nomeSlug":"posto-caranda-bosque-ltda","endereco":"Rua Vitorio Zeolla, 810","lat":-20.4407,"lng":-54.5719,"Gasolina":3.399,"Alcool":2.799,"Diesel":"","dataGasolina":"23\/05\/2016","idGasolina":8597338,"dataAlcool":"23\/05\/2016","idAlcool":8606956},
		{"id":33948,"nome":"Posto Emanuele Ltda","nomeSlug":"posto-emanuele-ltda","endereco":"Avenida Eduardo Elias Zahran, 2938","lat":-20.4741,"lng":-54.5886,"Gasolina":3.399,"Alcool":2.599,"Diesel":"","dataGasolina":"16\/05\/2016","idGasolina":8582216,"dataAlcool":"16\/05\/2016","idAlcool":8591820},
		{"id":33949,"nome":"Cassaro e Nogueira Ltda","nomeSlug":"cassaro-e-nogueira-ltda","endereco":"Avenida Costa e Silva, 1059","lat":-20.4917,"lng":-54.6135,"Gasolina":3.499,"Alcool":2.799,"Diesel":"","dataGasolina":"17\/05\/2016","idGasolina":8582226,"dataAlcool":"17\/05\/2016","idAlcool":8591837},
		{"id":34029,"nome":"Nova Esperanca Comercio de Combustiveis Ltda","nomeSlug":"nova-esperanca-comercio-de-combustiveis-ltda","endereco":"Avenida Julio de Castilho, 2501","lat":-20.4503,"lng":-54.6527,"Gasolina":3.369,"Alcool":2.799,"Diesel":3.299,"dataGasolina":"23\/05\/2016","idGasolina":8597331,"dataAlcool":"23\/05\/2016","idAlcool":8606957,"dataDiesel":"23\/05\/2016","idDiesel":8602809},
		{"id":34030,"nome":"Danubio Derivados de Petroleo Ltda","nomeSlug":"danubio-derivados-de-petroleo-ltda","endereco":"Avenida Carlinda Pereira Contar, 2679","lat":-20.4331,"lng":-54.5517,"Gasolina":3.299,"Alcool":2.599,"Diesel":"","dataGasolina":"23\/05\/2016","idGasolina":8597328,"dataAlcool":"23\/05\/2016","idAlcool":8606945},
		{"id":34066,"nome":"Posto Gueno Prosa Ltda","nomeSlug":"posto-gueno-prosa-ltda","endereco":"Rua 13 de Maio, 1937","lat":-20.468,"lng":-54.615,"Gasolina":3.299,"Alcool":2.899,"Diesel":"","dataGasolina":"22\/03\/2016","idGasolina":8522646,"dataAlcool":"22\/03\/2016","idAlcool":8531858},
		{"id":34067,"nome":"Farias Auto Posto Ltda","nomeSlug":"farias-auto-posto-ltda","endereco":"Rua Mal Candido M Rondon, 909","lat":-20.4606,"lng":-54.6228,"Gasolina":3.299,"Alcool":2.839,"Diesel":3.059,"dataGasolina":"22\/03\/2016","idGasolina":8522648,"dataAlcool":"22\/03\/2016","idAlcool":8531854,"dataDiesel":"24\/11\/2015","idDiesel":8297610},
		{"id":34248,"nome":"Posto de Combustivel Cidade Ltda","nomeSlug":"posto-de-combustivel-cidade-ltda","endereco":"Avenida Afonso Pena, 1.650","lat":-20.4648,"lng":-54.6205,"Gasolina":3.399,"Alcool":2.999,"Diesel":"","dataGasolina":"22\/03\/2016","idGasolina":8522663,"dataAlcool":"22\/03\/2016","idAlcool":8531878},
		{"id":34334,"nome":"S\u00e3o Leopoldo Posto de Servi\u00e7os Ltda.","nomeSlug":"sao-leopoldo-posto-de-servicos-ltda","endereco":"Rua Ricardo Franco, 21","lat":-20.4591,"lng":-54.6369,"Gasolina":3.299,"Alcool":2.499,"Diesel":2.979,"dataGasolina":"23\/05\/2016","idGasolina":8597325,"dataAlcool":"23\/05\/2016","idAlcool":8606933,"dataDiesel":"10\/08\/2015","idDiesel":8176448},
		{"id":34335,"nome":"Auto Posto Premium Ltda - Epp","nomeSlug":"auto-posto-premium-ltda-epp","endereco":"Rua Manoel de Oliveira Gomes, 41","lat":-20.4652,"lng":-54.551,"Gasolina":3.399,"Alcool":2.499,"Diesel":"","dataGasolina":"23\/05\/2016","idGasolina":8597345,"dataAlcool":"23\/05\/2016","idAlcool":8606936},
		{"id":34336,"nome":"Auto Posto Santa Lucia Ltda - Me","nomeSlug":"auto-posto-santa-lucia-ltda-me","endereco":"Rua Yokoama, 1068","lat":-20.4373,"lng":-54.6558,"bandeira":"branca.png","Gasolina":3.39,"Alcool":2.69,"Diesel":3.25,"dataGasolina":"23\/05\/2016","idGasolina":8597336,"dataAlcool":"23\/05\/2016","idAlcool":8606950,"dataDiesel":"23\/05\/2016","idDiesel":8602799},
		{"id":34430,"nome":"Corujao Posto de Servicos Ltda","nomeSlug":"corujao-posto-de-servicos-ltda","endereco":"Avenida Marechal Deodoro, 620","lat":-20.491,"lng":-54.6486,"bandeira":"branca.png","Gasolina":3.279,"Alcool":2.799,"Diesel":3.099,"dataGasolina":"16\/04\/2016","idGasolina":8566735,"dataAlcool":"08\/03\/2016","idAlcool":8502110,"dataDiesel":"08\/03\/2016","idDiesel":8498242},
		{"id":35041,"nome":"Auto Posto e Servi\u00e7o Dez Ltda Me","nomeSlug":"auto-posto-e-servico-dez-ltda-me","endereco":"Rua   Dolores, 381","lat":-20.4601,"lng":-54.6424,"Gasolina":3.319,"Alcool":2.969,"Diesel":"","dataGasolina":"15\/03\/2016","idGasolina":8507802,"dataAlcool":"15\/03\/2016","idAlcool":8516806},
		{"id":35168,"nome":"Abastecedira de Combustiveis America 2 Ltda","nomeSlug":"abastecedira-de-combustiveis-america-2-ltda","endereco":"Rua Joaquim Murtinho, 10557","lat":-20.4673,"lng":-54.5972,"Gasolina":3.359,"Alcool":2.599,"Diesel":3.259,"dataGasolina":"23\/05\/2016","idGasolina":8597330,"dataAlcool":"23\/05\/2016","idAlcool":8606943,"dataDiesel":"23\/05\/2016","idDiesel":8602800},
		{"id":35249,"nome":"Auto Posto Norte Sul Ltda","nomeSlug":"auto-posto-norte-sul-ltda","endereco":"Avenida Manoel da Costa Lima, 2590","lat":-20.496,"lng":-54.6406,"Gasolina":3.399,"Alcool":2.599,"Diesel":3.269,"dataGasolina":"17\/05\/2016","idGasolina":8582221,"dataAlcool":"17\/05\/2016","idAlcool":8591815,"dataDiesel":"17\/05\/2016","idDiesel":8587895},
		{"id":35290,"nome":"Candia & Candia Ltda","nomeSlug":"candia-candia-ltda","endereco":"Avenida Afonso Pena, 1379","lat":-20.4648,"lng":-54.6232,"Gasolina":3.499,"Alcool":2.999,"Diesel":"","dataGasolina":"22\/03\/2016","idGasolina":8522668,"dataAlcool":"22\/03\/2016","idAlcool":8531876}
	]
}