{
	"cidade":"Natal",
	"centro":{
		"lat":-5.817766,
		"lng":-35.220390
	},
	"postos":[		
		{"id":2021,"nome":"Posto Sao Rafael","nomeSlug":"posto-sao-rafael","endereco":"Avenida Coronel Estevam, 1155","lat":-5.79588,"lng":-35.2163,"bandeira":"ale.png","Gasolina":3.88,"Alcool":3.29,"Diesel":3.16,"dataGasolina":"24\/05\/2016","idGasolina":8597611,"dataAlcool":"24\/05\/2016","idAlcool":8607431,"dataDiesel":"06\/01\/2016","idDiesel":8364353},
		{"id":2037,"nome":"Parelhas G\u00e1s Ltda.","nomeSlug":"parelhas-gas-ltda","endereco":"Avenida Senador Salgado Filho, 411","lat":-5.81082,"lng":-35.2043,"bandeira":"br.png","Gasolina":3.899,"Alcool":3.299,"Diesel":2.799,"dataGasolina":"18\/05\/2016","idGasolina":8583455,"dataAlcool":"18\/05\/2016","idAlcool":8593004,"dataDiesel":"10\/03\/2015","idDiesel":7688800},
		{"id":2053,"nome":"Posto Shell Ribeira","nomeSlug":"posto-shell-ribeira","endereco":"Avenida Rio Branco, 180","lat":-5.78044,"lng":-35.204,"bandeira":"shell.png","Gasolina":3.89,"Alcool":3.199,"Diesel":2.659,"dataGasolina":"24\/05\/2016","idGasolina":8597614,"dataAlcool":"24\/05\/2016","idAlcool":8607424,"dataDiesel":"31\/08\/2015","idDiesel":8199881},
		{"id":2066,"nome":"Posto Nova Paranamirim","nomeSlug":"posto-nova-paranamirim","endereco":"Avenida Maria Lacerda Montenegro, 1732","lat":-5.88946,"lng":-35.2079,"bandeira":"branca.png","Gasolina":3.83,"Alcool":3.549,"Diesel":3.099,"dataGasolina":"22\/03\/2016","idGasolina":8523224,"dataAlcool":"22\/03\/2016","idAlcool":8533112,"dataDiesel":"22\/03\/2016","idDiesel":8528999},
		{"id":2078,"nome":"Posto Cidade Verde","nomeSlug":"posto-cidade-verde","endereco":"Avenida Ayrton Senna, 1964","lat":-5.86706,"lng":-35.2042,"bandeira":"br.png","Gasolina":3.83,"Alcool":3.07,"Diesel":2.38,"dataGasolina":"02\/02\/2016","idGasolina":8418580,"dataAlcool":"02\/02\/2016","idAlcool":8427547,"dataDiesel":"18\/12\/2013","idDiesel":6226329},
		{"id":2083,"nome":"Posto Ayrton Senna","nomeSlug":"posto-ayrton-senna","endereco":"Avenida Ayrton Senna, 2109","lat":-5.86836,"lng":-35.2038,"bandeira":"br.png","Gasolina":3.869,"Alcool":3.199,"Diesel":3.099,"dataGasolina":"23\/05\/2016","idGasolina":8597617,"dataAlcool":"23\/05\/2016","idAlcool":8607435,"dataDiesel":"23\/05\/2016","idDiesel":8603724},
		{"id":15050,"nome":"Francis Hery Costa","nomeSlug":"francis-hery-costa","endereco":"Avenida Abel Cabral, 2118","lat":-5.88216,"lng":-35.2043,"bandeira":"ale.png","Gasolina":3.88,"Alcool":3.39,"Diesel":3.19,"dataGasolina":"23\/05\/2016","idGasolina":8597620,"dataAlcool":"23\/05\/2016","idAlcool":8607443,"dataDiesel":"23\/05\/2016","idDiesel":8603730},
		{"id":15285,"nome":"Posto Petrobr\u00e1s N\u00famero Seis","nomeSlug":"posto-petrobras-numero-seis","endereco":"Rua dos Canind\u00e9s, 1421","lat":-5.80178,"lng":-35.217,"Gasolina":3.699,"Alcool":3.199,"Diesel":3.099,"dataGasolina":"18\/05\/2016","idGasolina":8581863,"dataAlcool":"29\/03\/2016","idAlcool":8547192,"dataDiesel":"29\/03\/2016","idDiesel":8543794},
		{"id":15581,"nome":"Posto Campo Belo","nomeSlug":"posto-campo-belo","endereco":"Avenida Capit\u00e3o Mor Gouveia, 3949","lat":-5.81517,"lng":-35.2493,"bandeira":"branca.png","Gasolina":3.929,"Alcool":3.299,"Diesel":3.199,"dataGasolina":"05\/04\/2016","idGasolina":8553313,"dataAlcool":"05\/04\/2016","idAlcool":8562401,"dataDiesel":"05\/04\/2016","idDiesel":8558325},
		{"id":15582,"nome":"Posto Godeir\u00e3o","nomeSlug":"posto-godeirao","endereco":"Avenida Dr. Jo\u00e3o Medeiros Filho, 6181","lat":-5.74534,"lng":-35.2146,"bandeira":"branca.png","Gasolina":3.87,"Alcool":3.33,"Diesel":2.69,"dataGasolina":"18\/05\/2016","idGasolina":8583442,"dataAlcool":"18\/05\/2016","idAlcool":8593006,"dataDiesel":"19\/11\/2014","idDiesel":7327968},
		{"id":15586,"nome":"Posto Luana","nomeSlug":"posto-luana","endereco":"Avenida dos Xavantes, 2001","lat":-5.85917,"lng":-35.232,"bandeira":"branca.png","Gasolina":3.78,"Alcool":3.17,"Diesel":2.91,"dataGasolina":"02\/02\/2016","idGasolina":8418562,"dataAlcool":"02\/02\/2016","idAlcool":8427539,"dataDiesel":"08\/09\/2015","idDiesel":8206911},
		{"id":15589,"nome":"Posto Natal Ii","nomeSlug":"posto-natal-ii","endereco":"Avenida Senador Salgado Filho, 2840","lat":-5.83335,"lng":-35.2125,"bandeira":"ipiranga.png","Gasolina":3.92,"Alcool":3.49,"Diesel":2.589,"dataGasolina":"05\/04\/2016","idGasolina":8553309,"dataAlcool":"05\/04\/2016","idAlcool":8562411,"dataDiesel":"20\/05\/2014","idDiesel":6735266},
		{"id":15590,"nome":"Belvedere","nomeSlug":"belvedere","endereco":"Avenida D\u00e3o Silveira, 4416","lat":-5.85871,"lng":-35.2138,"bandeira":"ipiranga.png","Gasolina":3.94,"Alcool":3.45,"Diesel":3.299,"dataGasolina":"05\/04\/2016","idGasolina":8553319,"dataAlcool":"05\/04\/2016","idAlcool":8562409,"dataDiesel":"15\/03\/2016","idDiesel":8513565},
		{"id":16603,"nome":"Posto Confian\u00e7a Zona Sul","nomeSlug":"posto-confianca-zona-sul","endereco":"Avenida Maria Lacerda Montenegro, 971 Parque Pitimbu","lat":-5.89472,"lng":-35.2037,"bandeira":"ale.png","Gasolina":3.89,"Alcool":3.29,"Diesel":3.199,"dataGasolina":"23\/05\/2016","idGasolina":8597625,"dataAlcool":"23\/05\/2016","idAlcool":8607438,"dataDiesel":"23\/05\/2016","idDiesel":8603732},
		{"id":21916,"nome":"Posto Brasil Ltda","nomeSlug":"posto-brasil-ltda","endereco":"Avenida Presidente Bandeira, 1270 0","lat":-5.80757,"lng":-35.2126,"Gasolina":3.84,"Alcool":3.199,"Diesel":3.17,"dataGasolina":"24\/05\/2016","idGasolina":8597603,"dataAlcool":"24\/05\/2016","idAlcool":8607422,"dataDiesel":"06\/01\/2016","idDiesel":8364356},
		{"id":21923,"nome":"Tirol Comercio Ltda","nomeSlug":"tirol-comercio-ltda","endereco":"Avenida Hermes da Fonseca, 857 0","lat":-5.80054,"lng":-35.2008,"bandeira":"branca.png","Gasolina":3.87,"Alcool":3.2,"Diesel":2.82,"dataGasolina":"24\/05\/2016","idGasolina":8597606,"dataAlcool":"24\/05\/2016","idAlcool":8607428,"dataDiesel":"12\/11\/2014","idDiesel":7305266},
		{"id":21927,"nome":"I. M. Com\u00e9rcio de Derivados de Petr\u00f3leo Ltda","nomeSlug":"i-m-comercio-de-derivados-de-petroleo-ltda","endereco":"Rua Alameda das Ac\u00e1cias, 1038","lat":-5.85867,"lng":-35.2129,"Gasolina":3.899,"Alcool":3.29,"Diesel":3.199,"dataGasolina":"18\/05\/2016","idGasolina":8583453,"dataAlcool":"18\/05\/2016","idAlcool":8593000,"dataDiesel":"18\/05\/2016","idDiesel":8588769},
		{"id":21929,"nome":"Luiz Flor e Filhos Ltda","nomeSlug":"luiz-flor-e-filhos-ltda","endereco":"Avenida Bernardo Vieira, 2517","lat":-5.80827,"lng":-35.2172,"bandeira":"shell.png","Gasolina":3.919,"Alcool":3.299,"Diesel":2.78,"dataGasolina":"29\/03\/2016","idGasolina":8538341,"dataAlcool":"29\/03\/2016","idAlcool":8547197,"dataDiesel":"22\/09\/2015","idDiesel":8221523},
		{"id":21935,"nome":"Parelhas G\u00e1s Ltda.","nomeSlug":"parelhas-gas-ltda","endereco":"Avenida Amintas Barros, 2672","lat":-5.81747,"lng":-35.2173,"Gasolina":3.92,"Alcool":3.49,"Diesel":2.98,"dataGasolina":"05\/04\/2016","idGasolina":8553303,"dataAlcool":"05\/04\/2016","idAlcool":8562412,"dataDiesel":"20\/10\/2015","idDiesel":8256253},
		{"id":21936,"nome":"Transportes e Comercio Novo Horizonte Ltda","nomeSlug":"transportes-e-comercio-novo-horizonte-ltda","endereco":"Avenida Senador Salgado Filho, 3712 0","lat":-5.84016,"lng":-35.2109,"Gasolina":3.92,"Alcool":3.39,"Diesel":3.199,"dataGasolina":"05\/04\/2016","idGasolina":8553311,"dataAlcool":"05\/04\/2016","idAlcool":8562406,"dataDiesel":"05\/04\/2016","idDiesel":8558328},
		{"id":21938,"nome":"On. Combustiveis e Derivados Ltda","nomeSlug":"on-combustiveis-e-derivados-ltda","endereco":"Rua Abel Cabral, 1144","lat":-5.87727,"lng":-35.2113,"bandeira":"ale.png","Gasolina":3.89,"Alcool":3.279,"Diesel":3.099,"dataGasolina":"23\/05\/2016","idGasolina":8597623,"dataAlcool":"23\/05\/2016","idAlcool":8607436,"dataDiesel":"23\/05\/2016","idDiesel":8603726},
		{"id":21942,"nome":"Fama Comercio e Servi\u00e7o Ltda","nomeSlug":"fama-comercio-e-servico-ltda","endereco":"Rodovia Br 304, 857 Km 12","lat":-5.88906,"lng":-35.2677,"Gasolina":3.869,"Alcool":3.299,"Diesel":3.099,"dataGasolina":"22\/03\/2016","idGasolina":8523234,"dataAlcool":"22\/03\/2016","idAlcool":8533106,"dataDiesel":"22\/03\/2016","idDiesel":8529006},
		{"id":21943,"nome":"Uniao Derivados de Petroleo Ltda","nomeSlug":"uniao-derivados-de-petroleo-ltda","endereco":"Avenida Maria Lacerda Montenegro, 510 Lote 20, Quadra e","lat":-5.8972,"lng":-35.2005,"bandeira":"branca.png","Gasolina":3.839,"Alcool":3.49,"Diesel":3.099,"dataGasolina":"22\/03\/2016","idGasolina":8523227,"dataAlcool":"22\/03\/2016","idAlcool":8533111,"dataDiesel":"22\/03\/2016","idDiesel":8529001},
		{"id":24580,"nome":"Posto da Tamarineira Ltda.","nomeSlug":"posto-da-tamarineira-ltda","endereco":"Rua Apodi, 349","lat":-5.79016,"lng":-35.2042,"Gasolina":3.799,"Alcool":3.19,"Diesel":2.99,"dataGasolina":"24\/05\/2016","idGasolina":8597596,"dataAlcool":"24\/05\/2016","idAlcool":8607416,"dataDiesel":"24\/05\/2016","idDiesel":8603714},
		{"id":24583,"nome":"Posto Campo Belo Ltda.","nomeSlug":"posto-campo-belo-ltda","endereco":"Avenida Felizardo Firmino de Moura, 848","lat":-5.79327,"lng":-35.2425,"bandeira":"branca.png","Gasolina":3.86,"Alcool":3.299,"Diesel":3.099,"dataGasolina":"29\/03\/2016","idGasolina":8538330,"dataAlcool":"29\/03\/2016","idAlcool":8547204,"dataDiesel":"29\/03\/2016","idDiesel":8543793},
		{"id":24586,"nome":"Posto Campo Belo Ltda.","nomeSlug":"posto-campo-belo-ltda","endereco":"Estrada Fonseca e Silva, 1088","lat":-5.79256,"lng":-35.2127,"bandeira":"shell.png","Gasolina":3.81,"Alcool":3.199,"Diesel":2.45,"dataGasolina":"24\/05\/2016","idGasolina":8597597,"dataAlcool":"24\/05\/2016","idAlcool":8607425,"dataDiesel":"08\/01\/2014","idDiesel":6296185},
		{"id":24588,"nome":"Posto Frei Dami\u00e3o Ltda","nomeSlug":"posto-frei-damiao-ltda","endereco":"Avenida Capit\u00e3o Mor Gouveia, 1245 0","lat":-5.82352,"lng":-35.2272,"Gasolina":3.92,"Alcool":3.34,"Diesel":2.89,"dataGasolina":"05\/04\/2016","idGasolina":8553305,"dataAlcool":"05\/04\/2016","idAlcool":8562403,"dataDiesel":"22\/12\/2015","idDiesel":8349125},
		{"id":24589,"nome":"Posto Frei Dami\u00e3o Ltda","nomeSlug":"posto-frei-damiao-ltda","endereco":"Rua Doutor Napole\u00e3o Laureano, 4330 0","lat":-5.8102,"lng":-35.2446,"Gasolina":3.65,"Alcool":3.29,"Diesel":3.199,"dataGasolina":"04\/05\/2016","idGasolina":8581772,"dataAlcool":"06\/04\/2016","idAlcool":8562396,"dataDiesel":"06\/04\/2016","idDiesel":8558326},
		{"id":24593,"nome":"Alvaro de Oliveira & Cia Ltda.","nomeSlug":"alvaro-de-oliveira-cia-ltda","endereco":"Avenida Senador Salgado Filho, 2580","lat":-5.82592,"lng":-35.21,"Gasolina":3.92,"Alcool":3.299,"Diesel":2.499,"dataGasolina":"05\/04\/2016","idGasolina":8553308,"dataAlcool":"05\/04\/2016","idAlcool":8562399,"dataDiesel":"19\/08\/2014","idDiesel":7032785},
		{"id":24597,"nome":"Parelhas G\u00e1s Ltda.","nomeSlug":"parelhas-gas-ltda","endereco":"Avenida Ayrton Senna, 1400 0","lat":-5.8623,"lng":-35.2053,"Gasolina":3.899,"Alcool":3.29,"Diesel":3.099,"dataGasolina":"18\/05\/2016","idGasolina":8583456,"dataAlcool":"18\/05\/2016","idAlcool":8593001,"dataDiesel":"18\/05\/2016","idDiesel":8588763},
		{"id":24601,"nome":"Joaquim Alves Flor & Cia. Ltda.","nomeSlug":"joaquim-alves-flor-cia-ltda","endereco":"Rua Fonseca e Silva, 1059","lat":-5.79256,"lng":-35.2127,"Gasolina":3.879,"Alcool":3.299,"Diesel":3.195,"dataGasolina":"29\/03\/2016","idGasolina":8538336,"dataAlcool":"29\/03\/2016","idAlcool":8547209,"dataDiesel":"29\/03\/2016","idDiesel":8543795},
		{"id":24603,"nome":"Pinheiro e Filho Com\u00e9rcio de Combust\u00edveis e Derivados de Petr\u00f3leo Ltda Me.","nomeSlug":"pinheiro-e-filho-comercio-de-combustiveis-e-derivados-de-petroleo-ltda-me","endereco":"Rua Cidade do Sol, 2167","lat":-5.87108,"lng":-35.2219,"bandeira":"shell.png","Gasolina":3.93,"Alcool":3.299,"Diesel":2.38,"dataGasolina":"15\/03\/2016","idGasolina":8508018,"dataAlcool":"15\/03\/2016","idAlcool":8517483,"dataDiesel":"17\/09\/2013","idDiesel":5926215},
		{"id":24604,"nome":"Mafra e Mafra Comercio Varejista de Combustivel Ltda","nomeSlug":"mafra-e-mafra-comercio-varejista-de-combustivel-ltda","endereco":"Rua Presidente Sarmento, 426","lat":-5.79834,"lng":-35.2219,"Gasolina":3.72,"Alcool":3.199,"Diesel":3.17,"dataGasolina":"06\/01\/2016","idGasolina":8358157,"dataAlcool":"24\/05\/2016","idAlcool":8607423,"dataDiesel":"06\/01\/2016","idDiesel":8364357},
		{"id":24606,"nome":"Posto Campo Belo Ltda.","nomeSlug":"posto-campo-belo-ltda","endereco":"Rodovia Br 101, 80","lat":-5.80673,"lng":-35.2029,"bandeira":"branca.png","Gasolina":3.83,"Alcool":3.19,"Diesel":3.199,"dataGasolina":"24\/05\/2016","idGasolina":8597600,"dataAlcool":"24\/05\/2016","idAlcool":8607417,"dataDiesel":"29\/03\/2016","idDiesel":8543799},
		{"id":24608,"nome":"Distribuidora de Combust\u00edveis Fronteiras Ltda.","nomeSlug":"distribuidora-de-combustiveis-fronteiras-ltda","endereco":"Rua D\u00e3o Silveira, 8000","lat":-5.84866,"lng":-35.2089,"bandeira":"ale.png","Gasolina":3.92,"Alcool":3.29,"Diesel":3.099,"dataGasolina":"05\/04\/2016","idGasolina":8553302,"dataAlcool":"05\/04\/2016","idAlcool":8562398,"dataDiesel":"05\/04\/2016","idDiesel":8558324},
		{"id":24612,"nome":"Joaquim Alves Flor & Cia. Ltda.","nomeSlug":"joaquim-alves-flor-cia-ltda","endereco":"Rua Coronel Estevam, 2048","lat":-5.80857,"lng":-35.2292,"Gasolina":3.94,"Alcool":3.39,"Diesel":3.299,"dataGasolina":"06\/04\/2016","idGasolina":8553318,"dataAlcool":"06\/04\/2016","idAlcool":8562407,"dataDiesel":"06\/04\/2016","idDiesel":8558333},
		{"id":24614,"nome":"Comercial Express Ltda","nomeSlug":"comercial-express-ltda","endereco":"Avenida Bernardo Vieira, 1906 0","lat":-5.80655,"lng":-35.2224,"Gasolina":3.939,"Alcool":2.789,"Diesel":3.039,"dataGasolina":"06\/04\/2016","idGasolina":8553315,"dataAlcool":"17\/03\/2015","idAlcool":7717195,"dataDiesel":"06\/04\/2016","idDiesel":8558323},
		{"id":24619,"nome":"Auto Posto Dudu Ltda","nomeSlug":"auto-posto-dudu-ltda","endereco":"Avenida Airton Senna, 2265 0","lat":-5.85741,"lng":-35.2058,"Gasolina":3.84,"Alcool":3.05,"Diesel":3.199,"dataGasolina":"30\/03\/2016","idGasolina":8538346,"dataAlcool":"15\/03\/2016","idAlcool":8517490,"dataDiesel":"15\/03\/2016","idDiesel":8513576},
		{"id":25845,"nome":"Luiz Flor e Filhos Ltda","nomeSlug":"luiz-flor-e-filhos-ltda","endereco":"Avenida Prudente de Moraes, 4476 0","lat":-5.81454,"lng":-35.2112,"Gasolina":3.92,"Alcool":3.34,"Diesel":3.199,"dataGasolina":"05\/04\/2016","idGasolina":8553301,"dataAlcool":"05\/04\/2016","idAlcool":8562402,"dataDiesel":"05\/04\/2016","idDiesel":8558329},
		{"id":25847,"nome":"Cirne Pneus Com\u00e9rcio e Servi\u00e7os Ltda.","nomeSlug":"cirne-pneus-comercio-e-servicos-ltda","endereco":"Avenida Prudente de Morais, 2021","lat":-5.79716,"lng":-35.2047,"Gasolina":3.88,"Alcool":3.199,"Diesel":3.19,"dataGasolina":"24\/05\/2016","idGasolina":8597607,"dataAlcool":"24\/05\/2016","idAlcool":8607427,"dataDiesel":"24\/05\/2016","idDiesel":8603722},
		{"id":25849,"nome":"Flor & Cia Ltda","nomeSlug":"flor-cia-ltda","endereco":"Av. Prudente de Morais, 1308, S\/n","lat":-5.79229,"lng":-35.2031,"bandeira":"shell.png","Gasolina":3.89,"Alcool":2.869,"Diesel":2.299,"dataGasolina":"24\/05\/2016","idGasolina":8597612,"dataAlcool":"02\/04\/2014","idAlcool":6580860,"dataDiesel":"27\/11\/2013","idDiesel":6156215},
		{"id":26529,"nome":"Andrade e Barbosa Ltda.","nomeSlug":"andrade-e-barbosa-ltda","endereco":"Avenida   Ceara, 79","lat":-5.82614,"lng":-35.2415,"bandeira":"branca.png","Gasolina":3.84,"Alcool":3.19,"Diesel":3.09,"dataGasolina":"18\/05\/2016","idGasolina":8583437,"dataAlcool":"18\/05\/2016","idAlcool":8592990,"dataDiesel":"18\/05\/2016","idDiesel":8588759},
		{"id":27216,"nome":"G. B. Com\u00e9rcio de Combust\u00edveis Ltda.","nomeSlug":"g-b-comercio-de-combustiveis-ltda","endereco":"Avenida Senador Salgado Filho, 1552","lat":-5.82066,"lng":-35.2081,"bandeira":"shell.png","Gasolina":3.88,"Alcool":3.199,"Diesel":3.099,"dataGasolina":"24\/05\/2016","idGasolina":8597609,"dataAlcool":"24\/05\/2016","idAlcool":8607419,"dataDiesel":"24\/05\/2016","idDiesel":8603721},
		{"id":27406,"nome":"Ca & Cj Santos Combust\u00edveis Ltda","nomeSlug":"ca-cj-santos-combustiveis-ltda","endereco":"Avenida Romualdo Galv\u00e3o, 1954","lat":-5.81618,"lng":-35.2097,"Gasolina":3.92,"Alcool":2.77,"Diesel":2.02,"dataGasolina":"05\/04\/2016","idGasolina":8553306,"dataAlcool":"20\/10\/2015","idAlcool":8258835,"dataDiesel":"12\/06\/2012","idDiesel":4590694},
		{"id":27461,"nome":"Si Comercial Derivados de Petroleo Ltda","nomeSlug":"si-comercial-derivados-de-petroleo-ltda","endereco":"Avenida Maria Lacerda Montenegro, 210 0","lat":-5.89873,"lng":-35.1983,"Gasolina":3.89,"Alcool":3.29,"Diesel":2.45,"dataGasolina":"23\/05\/2016","idGasolina":8597626,"dataAlcool":"23\/05\/2016","idAlcool":8607440,"dataDiesel":"11\/12\/2013","idDiesel":6192173},
		{"id":27603,"nome":"Pinheiro e Filho Com\u00e9rcio de Combust\u00edveis e Derivados de Petr\u00f3leo Ltda Me.","nomeSlug":"pinheiro-e-filho-comercio-de-combustiveis-e-derivados-de-petroleo-ltda-me","endereco":"Avenida Ayrton Senna, 1078","lat":-5.85948,"lng":-35.2057,"bandeira":"shell.png","Gasolina":3.89,"Alcool":3.39,"Diesel":3.199,"dataGasolina":"13\/04\/2016","idGasolina":8568087,"dataAlcool":"13\/04\/2016","idAlcool":8577544,"dataDiesel":"13\/04\/2016","idDiesel":8573149},
		{"id":27644,"nome":"Alvares e Alvares Ltda.","nomeSlug":"alvares-e-alvares-ltda","endereco":"Rua Alexandrino de Alencar, 593","lat":-5.79823,"lng":-35.2133,"bandeira":"branca.png","Gasolina":3.84,"Alcool":3.299,"Diesel":3.099,"dataGasolina":"24\/05\/2016","idGasolina":8597604,"dataAlcool":"24\/05\/2016","idAlcool":8607433,"dataDiesel":"24\/05\/2016","idDiesel":8603720},
		{"id":27876,"nome":"Mendes Petr\u00f3leo Ltda.","nomeSlug":"mendes-petroleo-ltda","endereco":"Avenida Prudente de Moraes, 5050","lat":-5.81849,"lng":-35.2127,"bandeira":"branca.png","Gasolina":3.92,"Alcool":3.39,"Diesel":3,"dataGasolina":"05\/04\/2016","idGasolina":8553310,"dataAlcool":"05\/04\/2016","idAlcool":8562405,"dataDiesel":"22\/12\/2015","idDiesel":8349134},
		{"id":28258,"nome":"Joaquim Alves Flor & Cia. Ltda.","nomeSlug":"joaquim-alves-flor-cia-ltda","endereco":"Av Bel Tomaz Landim, 4500","lat":-5.77027,"lng":-35.2682,"Gasolina":3.86,"Alcool":3.059,"Diesel":3.199,"dataGasolina":"01\/03\/2016","idGasolina":8478244,"dataAlcool":"01\/03\/2016","idAlcool":8487504,"dataDiesel":"01\/03\/2016","idDiesel":8483716},
		{"id":28997,"nome":"D.n. Natal Com\u00e9rcio de Combust\u00edveis Ltda","nomeSlug":"d-n-natal-comercio-de-combustiveis-ltda","endereco":"Avenida Capit\u00e3o Mor. Gouveia, 1022","lat":-5.82406,"lng":-35.2253,"bandeira":"shell.png","Gasolina":3.89,"Alcool":2.629,"Diesel":3.019,"dataGasolina":"15\/03\/2016","idGasolina":8508005,"dataAlcool":"27\/01\/2015","idAlcool":7560033,"dataDiesel":"15\/03\/2016","idDiesel":8513556},
		{"id":29205,"nome":"Cooptax - Cooperativa dos Proprietarios de Taxi de Natal","nomeSlug":"cooptax-cooperativa-dos-proprietarios-de-taxi-de-natal","endereco":"Rua   Mermoz, 280","lat":-5.79238,"lng":-35.2075,"Gasolina":3.82,"Alcool":3.199,"Diesel":3.079,"dataGasolina":"24\/05\/2016","idGasolina":8597599,"dataAlcool":"24\/05\/2016","idAlcool":8607421,"dataDiesel":"24\/05\/2016","idDiesel":8603716},
		{"id":29886,"nome":"Sociedade Dois Irmaos Ltda","nomeSlug":"sociedade-dois-irmaos-ltda","endereco":"Rua Doutormario Negocio, 2298 0","lat":-5.79668,"lng":-35.2287,"bandeira":"branca.png","Gasolina":3.88,"Alcool":3.299,"Diesel":3.099,"dataGasolina":"24\/05\/2016","idGasolina":8597610,"dataAlcool":"24\/05\/2016","idAlcool":8607432,"dataDiesel":"24\/05\/2016","idDiesel":8603719},
		{"id":30177,"nome":"Posto Monte Belo Com\u00e9rcio de Combust\u00edveis Ltda.","nomeSlug":"posto-monte-belo-comercio-de-combustiveis-ltda","endereco":"Avenida das Alagoas, 358","lat":-5.86339,"lng":-35.2122,"Gasolina":3.89,"Alcool":3.29,"Diesel":3.099,"dataGasolina":"18\/05\/2016","idGasolina":8583451,"dataAlcool":"18\/05\/2016","idAlcool":8592998,"dataDiesel":"18\/05\/2016","idDiesel":8588762},
		{"id":30224,"nome":"Posto Car Ltda Epp.","nomeSlug":"posto-car-ltda-epp","endereco":"Avenida Airton Senna, 2409","lat":-5.87123,"lng":-35.2033,"Gasolina":3.88,"Alcool":3.279,"Diesel":3.09,"dataGasolina":"23\/05\/2016","idGasolina":8597622,"dataAlcool":"23\/05\/2016","idAlcool":8607437,"dataDiesel":"23\/05\/2016","idDiesel":8603723},
		{"id":30676,"nome":"Distribuidora de Combust\u00edvel Araujo Ltda","nomeSlug":"distribuidora-de-combustivel-araujo-ltda","endereco":"Av: Dr. Jo\u00e3o Medeiros Filho, 4801","lat":-5.74692,"lng":-35.2265,"Gasolina":3.89,"Alcool":3.299,"Diesel":3.19,"dataGasolina":"18\/05\/2016","idGasolina":8583449,"dataAlcool":"18\/05\/2016","idAlcool":8593002,"dataDiesel":"18\/05\/2016","idDiesel":8588765},
		{"id":30687,"nome":"Quirino e Souza Com\u00e9rcio de Petr\u00f3leo e Servi\u00e7os Ltda.","nomeSlug":"quirino-e-souza-comercio-de-petroleo-e-servicos-ltda","endereco":"Rua Apodi, 520","lat":-5.79191,"lng":-35.1996,"Gasolina":3.83,"Alcool":3.29,"Diesel":2.289,"dataGasolina":"24\/05\/2016","idGasolina":8597601,"dataAlcool":"24\/05\/2016","idAlcool":8607430,"dataDiesel":"17\/09\/2013","idDiesel":5937018},
		{"id":31240,"nome":"Comercial Sobral Ltda","nomeSlug":"comercial-sobral-ltda","endereco":"Avenida Doutor Joao Medeiros Filho, 3960","lat":-5.75119,"lng":-35.2044,"Gasolina":3.889,"Alcool":3.29,"Diesel":3.099,"dataGasolina":"18\/05\/2016","idGasolina":8583446,"dataAlcool":"18\/05\/2016","idAlcool":8592997,"dataDiesel":"18\/05\/2016","idDiesel":8588761},
		{"id":31473,"nome":"Posto Jaguarari Ltda","nomeSlug":"posto-jaguarari-ltda","endereco":"Rua Jaguarari, 1974 0","lat":-5.81588,"lng":-35.2173,"Gasolina":3.92,"Alcool":3.49,"Diesel":3.199,"dataGasolina":"06\/04\/2016","idGasolina":8553304,"dataAlcool":"06\/04\/2016","idAlcool":8562410,"dataDiesel":"15\/03\/2016","idDiesel":8513558},
		{"id":31669,"nome":"Carau Combustiveis Ltda","nomeSlug":"carau-combustiveis-ltda","endereco":"Avenida Rui Barbosa, 1295","lat":-5.82109,"lng":-35.205,"Gasolina":3.94,"Alcool":3.44,"Diesel":3.199,"dataGasolina":"05\/04\/2016","idGasolina":8553316,"dataAlcool":"05\/04\/2016","idAlcool":8562408,"dataDiesel":"05\/04\/2016","idDiesel":8558327},
		{"id":31962,"nome":"M B R Comercial Ltda","nomeSlug":"m-b-r-comercial-ltda","endereco":"Avenida Doutor Joao Medeiros Filho, 2230","lat":-5.76003,"lng":-35.248,"Gasolina":3.89,"Alcool":3.299,"Diesel":3.19,"dataGasolina":"18\/05\/2016","idGasolina":8583447,"dataAlcool":"18\/05\/2016","idAlcool":8593003,"dataDiesel":"18\/05\/2016","idDiesel":8588767},
		{"id":33325,"nome":"Posto Sao Luiz Ltda","nomeSlug":"posto-sao-luiz-ltda","endereco":"Avenida Salgado Filho, 2815","lat":-5.84936,"lng":-35.2075,"Gasolina":3.899,"Alcool":"","Diesel":"","dataGasolina":"18\/05\/2016","idGasolina":8583454},
		{"id":33674,"nome":"Cais Comercio Varejista de Combustivel Ltda - Me","nomeSlug":"cais-comercio-varejista-de-combustivel-ltda-me","endereco":"Rua Henrique Castriciano, 300","lat":-5.78075,"lng":-35.2019,"bandeira":"branca.png","Gasolina":3.83,"Alcool":3.199,"Diesel":2.999,"dataGasolina":"24\/05\/2016","idGasolina":8597602,"dataAlcool":"24\/05\/2016","idAlcool":8607418,"dataDiesel":"24\/05\/2016","idDiesel":8603715},
		{"id":33785,"nome":"Jvc Comercial Ltda","nomeSlug":"jvc-comercial-ltda","endereco":"Avenida Industrial Joao Francisco da Motta, 3459","lat":-5.81355,"lng":-35.2465,"Gasolina":3.85,"Alcool":3.11,"Diesel":3.04,"dataGasolina":"18\/05\/2016","idGasolina":8583438,"dataAlcool":"18\/05\/2016","idAlcool":8592988,"dataDiesel":"18\/05\/2016","idDiesel":8588757},
		{"id":34026,"nome":"M. B. Com. e Derivados de Petroleo Eireli","nomeSlug":"m-b-com-e-derivados-de-petroleo-eireli","endereco":"Rua Jaguarari, 4227","lat":-5.83553,"lng":-35.2246,"Gasolina":3.92,"Alcool":"","Diesel":3.29,"dataGasolina":"05\/04\/2016","idGasolina":8553307,"dataDiesel":"05\/04\/2016","idDiesel":8558332},
		{"id":34035,"nome":"Jvc Comercial Ltda","nomeSlug":"jvc-comercial-ltda","endereco":"Avenida Floriano Peixoto, 467","lat":-5.78472,"lng":-35.202,"Gasolina":3.85,"Alcool":3.23,"Diesel":3.17,"dataGasolina":"24\/05\/2016","idGasolina":8597605,"dataAlcool":"24\/05\/2016","idAlcool":8607429,"dataDiesel":"06\/01\/2016","idDiesel":8364355},
		{"id":34036,"nome":"Jvc Comercial Ltda","nomeSlug":"jvc-comercial-ltda","endereco":"Avenida Prudente de Morais, 1854","lat":-5.79903,"lng":-35.2056,"Gasolina":3.94,"Alcool":3.29,"Diesel":"","dataGasolina":"05\/04\/2016","idGasolina":8553317,"dataAlcool":"05\/04\/2016","idAlcool":8562397},
		{"id":34492,"nome":"Rota do Sol Locadora Ltda","nomeSlug":"rota-do-sol-locadora-ltda","endereco":"Avenida Ayrton Senna, 3871","lat":-5.87116,"lng":-35.2035,"Gasolina":3.89,"Alcool":3.27,"Diesel":3.19,"dataGasolina":"18\/05\/2016","idGasolina":8583448,"dataAlcool":"18\/05\/2016","idAlcool":8592996,"dataDiesel":"18\/05\/2016","idDiesel":8588768},
		{"id":34851,"nome":"Parelhas Gastda.","nomeSlug":"parelhas-gastda","endereco":"Avenida Senador Salgado Filho, 411","lat":-5.83801,"lng":-35.2115,"Gasolina":3.89,"Alcool":3.279,"Diesel":"","dataGasolina":"22\/03\/2016","idGasolina":8523215,"dataAlcool":"22\/03\/2016","idAlcool":8533089},
		{"id":34862,"nome":"Parelhas Gastda.","nomeSlug":"parelhas-gastda","endereco":"Avenida Ayrton Senna, 1400 0","lat":-5.86241,"lng":-35.2054,"Gasolina":3.899,"Alcool":3.259,"Diesel":3.199,"dataGasolina":"22\/03\/2016","idGasolina":8523223,"dataAlcool":"22\/03\/2016","idAlcool":8533087,"dataDiesel":"22\/03\/2016","idDiesel":8528996},
		{"id":34896,"nome":"Parelhas Gastda.","nomeSlug":"parelhas-gastda","endereco":"Avenida Alexandrino de Alencar, 1000","lat":-5.80446,"lng":-35.209,"Gasolina":3.919,"Alcool":3.299,"Diesel":"","dataGasolina":"08\/03\/2016","idGasolina":8493287,"dataAlcool":"08\/03\/2016","idAlcool":8503153},
		{"id":34928,"nome":"Parelhas Gastda.","nomeSlug":"parelhas-gastda","endereco":"Avenida Amintas Barros, 2672","lat":-5.81741,"lng":-35.2175,"Gasolina":3.899,"Alcool":3.049,"Diesel":"","dataGasolina":"15\/03\/2016","idGasolina":8508006,"dataAlcool":"15\/03\/2016","idAlcool":8517478},
		{"id":35208,"nome":"Flor e Oliveira Ltda - Me","nomeSlug":"flor-e-oliveira-ltda-me","endereco":"Avenida da Integra\u00e7ao, 1450 a","lat":-5.73777,"lng":-35.2466,"Gasolina":3.92,"Alcool":3.299,"Diesel":3.199,"dataGasolina":"05\/04\/2016","idGasolina":8553312,"dataAlcool":"05\/04\/2016","idAlcool":8562400,"dataDiesel":"05\/04\/2016","idDiesel":8558330},
		{"id":35323,"nome":"Lm Dantas Revendedora de Combustivel Ltda","nomeSlug":"lm-dantas-revendedora-de-combustivel-ltda","endereco":"Avenida Duque de Caixas, 39","lat":-5.77574,"lng":-35.204,"Gasolina":"","Alcool":3.49,"Diesel":3.099,"dataAlcool":"12\/04\/2016","idAlcool":8577546,"dataDiesel":"12\/04\/2016","idDiesel":8573143}
	]
}